"","name","longitude","latitude","state","locality","year","month","identifier"
"1","Cacicus chrysopterus (Vigors, 1825)","-49.585277","-27.999849","Santa Catarina",NA,"2019","5","25010039"
"2","Cacicus chrysopterus (Vigors, 1825)","-65.862779","-27.292888","Tucumán",NA,"2019","7","30844696"
"3","Cacicus chrysopterus (Vigors, 1825)","-58.905782","-26.794474","Chaco",NA,"2019","7","29074568"
"4","Cacicus chrysopterus (Vigors, 1825)","-44.615444","-22.432028","Rio de Janeiro",NA,"2019","8","31447023"
"5","Cacicus chrysopterus (Vigors, 1825)","-45.163913","-23.319735","São Paulo","Pousada Oikos (Josiél Briet)","2018","1","OBS571723012"
"6","Cacicus chrysopterus (Vigors, 1825)","-58.30684","-26.84673","Ñeembucú","Baso Militar, Pilar, Transecto3 Punto4","2018","1","OBS592807509"
"7","Cacicus chrysopterus (Vigors, 1825)","-58.303379","-26.847271","Ñeembucú","Military Base BFLY Transect 4","2018","1","OBS575599751"
"8","Cacicus chrysopterus (Vigors, 1825)","-57.582936","-25.076477","Presidente Hayes","Estancia Golondrina (-25.0765,-57.5829)","2018","1","OBS572961225"
"9","Cacicus chrysopterus (Vigors, 1825)","-59.597056","-26.810974","Chaco","(-26.811, -59.597)","2018","1","OBS565120640"
"10","Cacicus chrysopterus (Vigors, 1825)","-56.8","-26.08","Paraguarí","Parque Nacional Ybycui, Dpto. Paraguari","2018","1","OBS569971400"
"11","Cacicus chrysopterus (Vigors, 1825)","-65.321623","-24.172518","Jujuy","Los Perales","2018","1","OBS570463557"
"12","Cacicus chrysopterus (Vigors, 1825)","-52.50727","-31.619215","Rio Grande do Sul","Santuário Nossa Senhora de Guadalupe","2018","1","OBS568003687"
"13","Cacicus chrysopterus (Vigors, 1825)","-58.299074","-26.394551","Formosa","estancia don luis","2018","1","OBS563829721"
"14","Cacicus chrysopterus (Vigors, 1825)","-58.708491","-26.981899","Chaco","Paraje Sol de Mayo","2018","1","OBS567418052"
"15","Cacicus chrysopterus (Vigors, 1825)","-46.743426","-23.984831","São Paulo","PE da Serra do Mar--Núcleo Curucutu","2018","1","OBS570685504"
"16","Cacicus chrysopterus (Vigors, 1825)","-52.432856","-28.081065","Rio Grande do Sul","Coxilha, Rio Grande do Sul, BR (-28,081, -52,433)","2018","1","OBS567150524"
"17","Cacicus chrysopterus (Vigors, 1825)","-55.8","-26.43","Itapúa","Parque Nacional San Rafael, Dptos. Itapúa y Caazapá (Alto Paraná)","2018","1","OBS570865798"
"18","Cacicus chrysopterus (Vigors, 1825)","-50.816665","-28.884787","Rio Grande do Sul","Caxias do Sul--Cânion dos Palanquinhos","2018","1","OBS564185399"
"19","Cacicus chrysopterus (Vigors, 1825)","-58.30179","-26.84939","Ñeembucú","Baso Militar, Pilar","2018","1","OBS592724641"
"20","Cacicus chrysopterus (Vigors, 1825)","-57.692495","-24.968587","Presidente Hayes","Estancia Golondrina","2018","1","OBS575247059"
"21","Cacicus chrysopterus (Vigors, 1825)","-48.412757","-24.26821","São Paulo","PE Intervales","2018","1","OBS572536159"
"22","Cacicus chrysopterus (Vigors, 1825)","-58.26494","-26.533142","Formosa","Unnamed Road, Formosa, AR (-26,533, -58,265)","2018","1","OBS572602316"
"23","Cacicus chrysopterus (Vigors, 1825)","-58.681744","-26.97824","Chaco","CAMPO EL X","2018","1","OBS569927556"
"24","Cacicus chrysopterus (Vigors, 1825)","-44.756815","-22.373522","Minas Gerais","PN do Itatiaia--Agulhas Negras Road (MG and RJ; 1700-2400m)","2018","1","OBS562559984"
"25","Cacicus chrysopterus (Vigors, 1825)","-58.02079","-25.811338","Formosa","Unnamed Road, Formosa, AR (-25,811, -58,021)","2018","1","OBS564495478"
"26","Cacicus chrysopterus (Vigors, 1825)","-58.652959","-26.945286","Chaco","futura reserva","2018","1","OBS568084521"
"27","Cacicus chrysopterus (Vigors, 1825)","-50.386768","-29.423851","Rio Grande do Sul","FLONA São Francisco de Paula","2018","1","OBS564355188"
"28","Cacicus chrysopterus (Vigors, 1825)","-58.57035","-27.313615","Corrientes","Paso de la Patria, Corrientes, AR (-27.314, -58.57)","2018","1","OBS569195221"
"29","Cacicus chrysopterus (Vigors, 1825)","-64.633333","-24.7","Salta","PN El Rey","2018","1","OBS572984633"
"30","Cacicus chrysopterus (Vigors, 1825)","-52.626674","-31.551659","Rio Grande do Sul","Morro Redondo--Pousada da Cachoeira, Arroio Cadeia","2018","1","OBS566777619"
"31","Cacicus chrysopterus (Vigors, 1825)","-50.798547","-28.972539","Rio Grande do Sul","PE Criuva","2018","1","OBS565181457"
"32","Cacicus chrysopterus (Vigors, 1825)","-56.66","-22.33","Amambay","Colonia Rinconada (Amambay)","2018","1","OBS565497410"
"33","Cacicus chrysopterus (Vigors, 1825)","-59.584856","-26.804444","Chaco","Chaco NP--entrance area","2018","1","OBS571099306"
"34","Cacicus chrysopterus (Vigors, 1825)","-58.644118","-27.118549","Chaco","PUERTO LAS PALMAS","2018","1","OBS566045199"
"35","Cacicus chrysopterus (Vigors, 1825)","-56.306958","-19.9637","Mato Grosso do Sul","Unnamed Road, Aquidauana, State of Mato Grosso do Sul, BR (-19.964, -56.307)","2018","1","OBS568809226"
"36","Cacicus chrysopterus (Vigors, 1825)","-64.644702","-24.722996","Salta","PN El rey - Chorro de los loros","2018","1","OBS572988009"
"37","Cacicus chrysopterus (Vigors, 1825)","-50.580228","-29.442807","Rio Grande do Sul","São Francisco de Paula--área geral","2018","1","OBS572628943"
"38","Cacicus chrysopterus (Vigors, 1825)","-51.430821","-26.74302","Santa Catarina","Macieira--Cabanha Guamirim","2018","1","OBS572091318"
"39","Cacicus chrysopterus (Vigors, 1825)","-58.715959","-26.986259","Chaco","Sol de Mayo","2018","1","OBS573215018"
"40","Cacicus chrysopterus (Vigors, 1825)","-64.60666","-24.729982","Salta","PN El Rey","2018","1","OBS572997723"
"41","Cacicus chrysopterus (Vigors, 1825)","-58.03319","-26.85011","Ñeembucú","Estancia Santa Ana, Transecto1 Punto4","2018","1","OBS592780459"
"42","Cacicus chrysopterus (Vigors, 1825)","-53.981667","-26.520717","Misiones","PP Cruce Caballero","2018","1","OBS578130805"
"43","Cacicus chrysopterus (Vigors, 1825)","-44.845845","-23.147334","São Paulo","Cunha--Wolkenburg","2018","1","OBS571594009"
"44","Cacicus chrysopterus (Vigors, 1825)","-53.259637","-26.357958","Santa Catarina","Palma Sola--Pasta","2018","1","OBS568360346"
"45","Cacicus chrysopterus (Vigors, 1825)","-49.172168","-25.623235","Paraná","Hogase","2018","1","OBS566530316"
"46","Cacicus chrysopterus (Vigors, 1825)","-50.817848","-28.948103","Rio Grande do Sul","PE Ctrle","2018","1","OBS564465287"
"47","Cacicus chrysopterus (Vigors, 1825)","-52.788032","-28.521941","Rio Grande do Sul","Mato de Invernadinha - Nmt(-28,522, -52,788)","2018","1","OBS569188116"
"48","Cacicus chrysopterus (Vigors, 1825)","-49.934151","-27.951291","Santa Catarina","Urupema -- Eco-Pousada Rio dos Touros","2018","1","OBS570481120"
"49","Cacicus chrysopterus (Vigors, 1825)","-58.716216","-26.979987","Chaco","Cabral Cué","2018","1","OBS565205458"
"50","Cacicus chrysopterus (Vigors, 1825)","-55.663948","-26.637764","Itapúa","Estancias Nueva Gambach","2018","1","OBS565804909"
"51","Cacicus chrysopterus (Vigors, 1825)","-64.578988","-24.731205","Salta","PN El rey - Popayan","2018","1","OBS572997657"
"52","Cacicus chrysopterus (Vigors, 1825)","-58.718877","-27.065882","Chaco","Cancha Larga","2018","1","OBS571362222"
"53","Cacicus chrysopterus (Vigors, 1825)","-58.142333","-25.044","Formosa","PN Río Pilcomayo (AICA FO13)","2018","1","OBS666061354"
"54","Cacicus chrysopterus (Vigors, 1825)","-50.821965","-28.884815","Rio Grande do Sul","PE Jus","2018","1","OBS564729259"
"55","Cacicus chrysopterus (Vigors, 1825)","-45.656777","-22.85252","São Paulo","Estrada do Pico Agudo, Santo Antônio do Pinhal / SP - BR","2018","1","OBS569324810"
"56","Cacicus chrysopterus (Vigors, 1825)","-46.126293","-23.072198","São Paulo","Igaratá - SP, Igaratá BR-SP (-23,0722,-46,1263)","2018","1","OBS568981164"
"57","Cacicus chrysopterus (Vigors, 1825)","-58.038711","-26.851948","Ñeembucú","Santa Ana Transect 1","2018","1","OBS571751939"
"58","Cacicus chrysopterus (Vigors, 1825)","-44.584091","-22.649526","São Paulo","1 Rua Olímpio, São Paulo, BR (-22,65, -44,584)","2018","1","OBS640489514"
"59","Cacicus chrysopterus (Vigors, 1825)","-52.788759","-28.521316","Rio Grande do Sul","Mato de Invernadinha-NMT(-28,521, -52,789)","2018","1","OBS568264033"
"60","Cacicus chrysopterus (Vigors, 1825)","-58.307297","-26.843716","Ñeembucú","Baso Militar, Pilar","2018","1","OBS575285359"
"61","Cacicus chrysopterus (Vigors, 1825)","-50.818868","-28.87427","Rio Grande do Sul","Unnamed Road, Rio Grande do Sul, BR (-28,874, -50,819)","2018","1","OBS565384788"
"62","Cacicus chrysopterus (Vigors, 1825)","-54.827625","-27.058887","Misiones","PP Salto Encantado","2018","1","OBS572143396"
"63","Cacicus chrysopterus (Vigors, 1825)","-59.613876","-26.80584","Chaco","PN Chaco","2018","1","OBS578103555"
"64","Cacicus chrysopterus (Vigors, 1825)","-52.890406","-28.509858","Rio Grande do Sul","Propriedade Kilpp- NMT , Rio Grande do Sul, BR (-28,51, -52,89)","2018","1","OBS571456384"
"65","Cacicus chrysopterus (Vigors, 1825)","-56.304408","-19.952643","Mato Grosso do Sul","Refugio Ecologico Caiman","2018","1","OBS566865842"
"66","Cacicus chrysopterus (Vigors, 1825)","-52.905019","-28.504433","Rio Grande do Sul","Mato do Arlei","2018","1","OBS572549575"
"67","Cacicus chrysopterus (Vigors, 1825)","-53.285966","-26.304957","Santa Catarina","Palma Sola - Fazenda Pazini","2018","1","OBS568361373"
"68","Cacicus chrysopterus (Vigors, 1825)","-58.777567","-26.921634","Chaco","Unnamed Road, Chaco, AR (-26.922, -58.778)","2018","1","OBS564936604"
"69","Cacicus chrysopterus (Vigors, 1825)","-49.182511","-25.709285","Paraná","Stud Don Juan","2018","2","OBS574190485"
"70","Cacicus chrysopterus (Vigors, 1825)","-65.386473","-24.699761","Salta","La Misión","2018","2","OBS578129500"
"71","Cacicus chrysopterus (Vigors, 1825)","-65.389631","-24.023077","Jujuy","Angosto de Jaire","2018","2","OBS579315680"
"72","Cacicus chrysopterus (Vigors, 1825)","-58.696967","-25.255841","Formosa","Ea. La Armonía","2018","2","OBS587418190"
"73","Cacicus chrysopterus (Vigors, 1825)","-58.222164","-26.343422","Formosa","Establecimiento Los Picazos (AICA FO02)","2018","2","OBS581068892"
"74","Cacicus chrysopterus (Vigors, 1825)","-58.099126","-25.753972","Formosa","(-25,754, -58,099)","2018","2","OBS653599221"
"75","Cacicus chrysopterus (Vigors, 1825)","-46.516722","-23.777839","São Paulo","Serra do Mar - Estoril","2018","2","OBS574648199"
"76","Cacicus chrysopterus (Vigors, 1825)","-55.984667","-31.3595","Tacuarembó","Bichadero-Fros, Cuchilla de Laureles, Tacuarembo","2018","2","OBS703804102"
"77","Cacicus chrysopterus (Vigors, 1825)","-58.374542","-26.3979","Formosa","Ruta Provincial 1, Formosa, AR (-26,398, -58,375)","2018","2","OBS579478514"
"78","Cacicus chrysopterus (Vigors, 1825)","-53.659925","-27.032705","Santa Catarina","LD ITA-SMO - UA1, Tunápolis, SC (-27,033, -53,66)","2018","2","OBS589546876"
"79","Cacicus chrysopterus (Vigors, 1825)","-52.5825","-31.666944","Rio Grande do Sul","Morro redondo, Sítio Flor e Osória","2018","2","OBS573987809"
"80","Cacicus chrysopterus (Vigors, 1825)","-49.795586","-25.320559","Paraná","Cercado - Escarpa Devoniana - Palmeira","2018","2","OBS637079779"
"81","Cacicus chrysopterus (Vigors, 1825)","-50.174809","-29.480994","Rio Grande do Sul","CPCN Pró Mata PUCRS","2018","2","OBS579888971"
"82","Cacicus chrysopterus (Vigors, 1825)","-47.195692","-23.844602","São Paulo","Ibiúna--Recanto no Sertão","2018","2","OBS589609292"
"83","Cacicus chrysopterus (Vigors, 1825)","-56.838868","-26.095604","Paraguarí","Parque Nacional Ybycui","2018","2","OBS582739917"
"84","Cacicus chrysopterus (Vigors, 1825)","-55.472116","-31.5721","Rivera","Minas de Corrales","2018","2","OBS621707484"
"85","Cacicus chrysopterus (Vigors, 1825)","-53.721471","-32.155559","Cerro Largo","Paso Paiva","2018","2","OBS579810650"
"86","Cacicus chrysopterus (Vigors, 1825)","-58.164904","-25.983219","Formosa","Reserva Guaycolec (AICA FO08)","2018","2","OBS667088830"
"87","Cacicus chrysopterus (Vigors, 1825)","-56.019167","-31.2785","Tacuarembó","Laureles","2018","2","OBS582868544"
"88","Cacicus chrysopterus (Vigors, 1825)","-58.021697","-25.78769","Formosa","Riacho Monte Lindo R11","2018","2","OBS580971748"
"89","Cacicus chrysopterus (Vigors, 1825)","-58.329093","-26.363542","Formosa","Localidad desconocida - (-26,364, -58,329)","2018","2","OBS579480757"
"90","Cacicus chrysopterus (Vigors, 1825)","-54.842039","-27.055742","Misiones","Tacuapí Lodge, Misiónes, AR (-27,056, -54,842)","2018","2","OBS582902306"
"91","Cacicus chrysopterus (Vigors, 1825)","-55.157481","-26.062623","Alto Paraná","Doctor Juan León Mallorquín, Departamento de Alto Paraná, PY (-26.063, -55.157)","2018","2","OBS575641635"
"92","Cacicus chrysopterus (Vigors, 1825)","-51.263069","-29.720357","Rio Grande do Sul","Portão, Rio Grande do Sul, BR","2018","2","OBS578192344"
"93","Cacicus chrysopterus (Vigors, 1825)","-58.2185","-25.932","Formosa","Ea. Guaycolec (Acceso restringido) (AICA FO08)","2018","2","OBS580765014"
"94","Cacicus chrysopterus (Vigors, 1825)","-50.365053","-29.092279","Rio Grande do Sul","P.E. do Tainhas Rio Grande do Sul, BR (-29,092, -50,365)","2018","2","OBS582577411"
"95","Cacicus chrysopterus (Vigors, 1825)","-44.615079","-22.431983","Rio de Janeiro","PN de Itatiaia--Hotel do Ypê","2018","2","OBS584513145"
"96","Cacicus chrysopterus (Vigors, 1825)","-65.503879","-24.732498","Salta","Reserva del Huaico","2018","2","OBS576120972"
"97","Cacicus chrysopterus (Vigors, 1825)","-57.174225","-28.53552","Corrientes","Carlos Pellegrini y Laguna Iberá (AICA CR10)","2018","2","OBS581266572"
"98","Cacicus chrysopterus (Vigors, 1825)","-47.986243","-24.049624","São Paulo","RPPN Trapangá","2018","2","OBS664190129"
"99","Cacicus chrysopterus (Vigors, 1825)","-58.368524","-26.391495","Formosa","Tio Jorge","2018","2","OBS579841675"
"100","Cacicus chrysopterus (Vigors, 1825)","-45.294515","-22.50688","Minas Gerais","MG-350, Minas Gerais, BR (-22,507, -45,295)","2018","2","OBS581995428"
"101","Cacicus chrysopterus (Vigors, 1825)","-52.485101","-31.45638","Rio Grande do Sul","Arroio do Padre--Arredores do Bairro Brasil pra Cristo","2018","2","OBS577396775"
"102","Cacicus chrysopterus (Vigors, 1825)","-52.505556","-31.616389","Rio Grande do Sul","Pelotas--cascata e mata no Santuário","2018","2","OBS577099707"
"103","Cacicus chrysopterus (Vigors, 1825)","-46.023926","-22.882438","Minas Gerais","3655 Avenida das Montanhas, São Paulo, BR (-22,882, -46,024)","2018","2","OBS578079790"
"104","Cacicus chrysopterus (Vigors, 1825)","-57.717962","-25.208643","Presidente Hayes","Condominio Asturmancha","2018","2","OBS579284942"
"105","Cacicus chrysopterus (Vigors, 1825)","-57.368844","-23.668251","San Pedro","La Casa de Santi","2018","2","OBS579433072"
"106","Cacicus chrysopterus (Vigors, 1825)","-53.734088","-32.138699","Cerro Largo","Paso Centurion","2018","2","OBS579413819"
"107","Cacicus chrysopterus (Vigors, 1825)","-55.770384","-28.237342","Corrientes","Unnamed Road, Corrientes, AR (-28,237, -55,77)","2018","2","OBS577358975"
"108","Cacicus chrysopterus (Vigors, 1825)","-63.974106","-18.350591","Santa Cruz","Laguna Esmeralda","2018","2","OBS579629420"
"109","Cacicus chrysopterus (Vigors, 1825)","-55.678783","-27.664953","Misiones","Sierras del imán","2018","2","OBS573986541"
"110","Cacicus chrysopterus (Vigors, 1825)","-45.263726","-22.534092","Minas Gerais","Delfim Moreira -- MG-350 - -22,5341x-45,2637","2018","2","OBS579430644"
"111","Cacicus chrysopterus (Vigors, 1825)","-58.218901","-26.208706","Formosa","Cabaña Punta Verde, Formosa, Formosa, AR (-26,209, -58,219)","2018","2","OBS577105640"
"112","Cacicus chrysopterus (Vigors, 1825)","-59.152556","-25.48301","Formosa","Unnamed Road, Formosa, AR (-25.483, -59.153)","2018","2","OBS582452350"
"113","Cacicus chrysopterus (Vigors, 1825)","-58.041973","-26.852484","Ñeembucú","Estancia Santa Ana","2018","2","OBS574907799"
"114","Cacicus chrysopterus (Vigors, 1825)","-57.45","-24.883333","Presidente Hayes","Estancia La Rafaela, Pte. Hayes (Bajo Chaco)","2018","2","OBS592310592"
"115","Cacicus chrysopterus (Vigors, 1825)","-52.343717","-31.463884","Rio Grande do Sul","Arroio do Padre--Cerro próximo à Santa Silvana","2018","2","OBS576778147"
"116","Cacicus chrysopterus (Vigors, 1825)","-53.62201","-26.97605","Santa Catarina","LD ITA-SMO - UA2, Tunápolis, SC (-26,976, -53,622)","2018","2","OBS589546730"
"117","Cacicus chrysopterus (Vigors, 1825)","-53.391909","-31.763522","Rio Grande do Sul","Região das Alegrias","2018","2","OBS579622522"
"118","Cacicus chrysopterus (Vigors, 1825)","-59.262764","-28.505204","Santa Fe","Portal del Humedal - Villa Ocampo","2018","3","OBS596408216"
"119","Cacicus chrysopterus (Vigors, 1825)","-52.901944","-31.901944","Rio Grande do Sul","Pedro Osório--Arroio Grande","2018","3","OBS586943311"
"120","Cacicus chrysopterus (Vigors, 1825)","-44.796072","-22.352963","Minas Gerais","Itamonte--RPPN Alto Montana","2018","3","OBS594022814"
"121","Cacicus chrysopterus (Vigors, 1825)","-64.959755","-24.917421","Salta","Palomitas","2018","3","OBS587262182"
"122","Cacicus chrysopterus (Vigors, 1825)","-50.393583","-29.432006","Rio Grande do Sul","FLONA de São Francisco de Paula, Rio Grande do Sul, BR (-29,432, -50,394)","2018","3","OBS586512212"
"123","Cacicus chrysopterus (Vigors, 1825)","-58.01438","-26.74019","Ñeembucú","Ruta Tacuaras - San Juan Bautista de Neembucu, Transecto5 Punto10","2018","3","OBS594578871"
"124","Cacicus chrysopterus (Vigors, 1825)","-49.655239","-25.468299","Paraná","440 Rodovia do Café, Paraná, BR (-25,468, -49,655)","2018","3","OBS600376957"
"125","Cacicus chrysopterus (Vigors, 1825)","-52.863889","-31.889722","Rio Grande do Sul","Pedro Osório, estrada do Basílio","2018","3","OBS585864012"
"126","Cacicus chrysopterus (Vigors, 1825)","-65.506878","-24.733351","Salta","Mirador de la laguna La Tempranera","2018","3","OBS587581009"
"127","Cacicus chrysopterus (Vigors, 1825)","-54.2645","-26.689778","Misiones","Reserva Privada Yaguaroundi (AICA MI13)","2018","3","OBS596382541"
"128","Cacicus chrysopterus (Vigors, 1825)","-58.31059","-26.84549","Ñeembucú","Baso Militar, Pilar, Transecto3 Punto6","2018","3","OBS594753640"
"129","Cacicus chrysopterus (Vigors, 1825)","-52.924444","-31.891667","Rio Grande do Sul","Pedro Osório--Atalho Cruz","2018","3","OBS586151263"
"130","Cacicus chrysopterus (Vigors, 1825)","-58.438296","-26.592288","Formosa","Camino a Payaguá","2018","3","OBS590639084"
"131","Cacicus chrysopterus (Vigors, 1825)","-58.368688","-26.39137","Formosa","Posta del Salado","2018","3","OBS583836182"
"132","Cacicus chrysopterus (Vigors, 1825)","-57.369333","-24.961482","Presidente Hayes","Estancia Playada","2018","3","OBS588436089"
"133","Cacicus chrysopterus (Vigors, 1825)","-58.792026","-27.17657","Chaco","campo la guitarra","2018","3","OBS593186056"
"134","Cacicus chrysopterus (Vigors, 1825)","-58.228117","-26.539593","Formosa","Prefectura Cue","2018","3","OBS588595376"
"135","Cacicus chrysopterus (Vigors, 1825)","-58.228781","-26.524583","Formosa","Prefectura","2018","3","OBS588597500"
"136","Cacicus chrysopterus (Vigors, 1825)","-58.540402","-27.312297","Corrientes","Paso De La Patria","2018","3","OBS591432123"
"137","Cacicus chrysopterus (Vigors, 1825)","-63.912889","-18.47825","Santa Cruz","Tierras Nuevas","2018","3","OBS684918823"
"138","Cacicus chrysopterus (Vigors, 1825)","-58.634183","-27.113139","Chaco","Boquita del Quia","2018","3","OBS591018131"
"139","Cacicus chrysopterus (Vigors, 1825)","-58.173358","-26.219153","Formosa","Reserva de Biósfera Laguna Oca (AICA FO02)","2018","3","OBS589289639"
"140","Cacicus chrysopterus (Vigors, 1825)","-57.748175","-25.173926","Presidente Hayes","Ruta 12, Km 13 a Km 24","2018","3","OBS593358752"
"141","Cacicus chrysopterus (Vigors, 1825)","-44.592969","-22.664314","São Paulo","Serra da Bocaina","2018","3","OBS584232847"
"142","Cacicus chrysopterus (Vigors, 1825)","-61.170796","-27.23221","Chaco","Charata--Club De Caza y Pesca","2018","3","OBS588068741"
"143","Cacicus chrysopterus (Vigors, 1825)","-57.94654","-26.894","Ñeembucú","Guazu Cua Transecto9 Punto4","2018","3","OBS589720773"
"144","Cacicus chrysopterus (Vigors, 1825)","-52.636389","-30.891667","Rio Grande do Sul","Encruzilhada Do Sul--Cerro Do Moinho","2018","3","OBS608776163"
"145","Cacicus chrysopterus (Vigors, 1825)","-58.547852","-27.313956","Corrientes","Paso De La Patria","2018","3","OBS591429123"
"146","Cacicus chrysopterus (Vigors, 1825)","-44.760225","-22.377042","Rio de Janeiro","Parque Nacional do Itatiaia (parte alta), Itamonte, Minas Gerais.","2018","3","OBS593923805"
"147","Cacicus chrysopterus (Vigors, 1825)","-58.572492","-26.597386","Formosa","Camino A Payagua","2018","3","OBS587292470"
"148","Cacicus chrysopterus (Vigors, 1825)","-58.504323","-26.542208","Formosa","Camino A Payagua","2018","3","OBS595044901"
"149","Cacicus chrysopterus (Vigors, 1825)","-58.50123","-27.327812","Corrientes","Paso De La Patria","2018","3","OBS591424159"
"150","Cacicus chrysopterus (Vigors, 1825)","-46.473782","-21.812843","Minas Gerais","Recanto dos lagos","2018","3","OBS595226683"
"151","Cacicus chrysopterus (Vigors, 1825)","-45.980847","-22.907252","São Paulo","Estrada dos Ferreiras, São Paulo, Sentido Trilha Do MiranteBR (-22,907, -45,981)","2018","3","OBS595859403"
"152","Cacicus chrysopterus (Vigors, 1825)","-58.493181","-26.548373","Formosa","Camino A Payagua","2018","3","OBS589427213"
"153","Cacicus chrysopterus (Vigors, 1825)","-44.628469","-22.369822","Rio de Janeiro",NA,"2018","3","10750756"
"154","Cacicus chrysopterus (Vigors, 1825)","-45.943138","-22.90807","São Paulo","335 Estrada de Santa Bárbara, São Paulo, BR (-22,908, -45,943)","2018","3","OBS589939759"
"155","Cacicus chrysopterus (Vigors, 1825)","-64.429667","-24.2445","Jujuy","El Fuerte y Santa Clara (AICA-JU04)","2018","3","OBS593106238"
"156","Cacicus chrysopterus (Vigors, 1825)","-51.080372","-29.518175","Rio Grande do Sul","Morro Reuter--Estrada José Klauck","2018","3","OBS592300538"
"157","Cacicus chrysopterus (Vigors, 1825)","-53.975986","-25.857299","Misiones","San Sebastián de la Selva (AICA MI04)","2018","3","OBS589376955"
"158","Cacicus chrysopterus (Vigors, 1825)","-65.535667","-25.122833","Salta","Quebrada de Tilián","2018","3","OBS587248011"
"159","Cacicus chrysopterus (Vigors, 1825)","-50.8538","-29.3132",NA,"Parque do Caracol, Canela, Rio Grande do Sul, state","2018","3","414871@XC"
"160","Cacicus chrysopterus (Vigors, 1825)","-58.324725","-26.391977","Formosa","Campo De Brigada","2018","3","OBS587292958"
"161","Cacicus chrysopterus (Vigors, 1825)","-51.471333","-28.617528","Rio Grande do Sul","André da Rocha--Chimarrão","2018","4","OBS603928362"
"162","Cacicus chrysopterus (Vigors, 1825)","-52.815263","-27.913566","Rio Grande do Sul","PE Papagaio Charao,  Sarandi, Rio Grande do Sul, BR (-27,914, -52,815)","2018","4","OBS603534380"
"163","Cacicus chrysopterus (Vigors, 1825)","-56.407714","-20.255997","Mato Grosso do Sul","Miranda","2018","4","OBS609041806"
"164","Cacicus chrysopterus (Vigors, 1825)","-58.226355","-25.140118","Formosa","Camino al PN Río Pilcomayo","2018","4","OBS607924636"
"165","Cacicus chrysopterus (Vigors, 1825)","-49.103512","-25.733764","Paraná","Guaricana","2018","4","OBS601402098"
"166","Cacicus chrysopterus (Vigors, 1825)","-64.4003","-24.098342","Jujuy","Reserva Natural Privada Eco-Portal de Piedra","2018","4","OBS602780885"
"167","Cacicus chrysopterus (Vigors, 1825)","-45.179165","-22.541663","Minas Gerais","Delfim Moreira--Estrada para o Pico dos Marins","2018","4","OBS604741010"
"168","Cacicus chrysopterus (Vigors, 1825)","-51.168356","-23.952864","Paraná","RPPN em Mauá da Serra","2018","4","OBS647230387"
"169","Cacicus chrysopterus (Vigors, 1825)","-52.420509","-29.345914","Rio Grande do Sul","Mata Sete Léguas/Perau da Nega -Boqueirão do Leão - -29,338x-52,443","2018","4","OBS600527750"
"170","Cacicus chrysopterus (Vigors, 1825)","-50.336491","-29.496353","Rio Grande do Sul","Pró-Mata","2018","4","OBS613295566"
"171","Cacicus chrysopterus (Vigors, 1825)","-55.790965","-20.477603","Mato Grosso do Sul","674 Rua Manoel Áureliano da Costa, Aquidauana, Mato Grosso do Sul, BR (-20,478, -55,791)","2018","4","OBS609042058"
"172","Cacicus chrysopterus (Vigors, 1825)","-50.359722","-29.472222","Rio Grande do Sul","São Francisco de Paula, Gravina","2018","4","OBS600048053"
"173","Cacicus chrysopterus (Vigors, 1825)","-64.849505","-23.760838","Jujuy","PN Calilegua (AICA JU02)","2018","4","OBS621573977"
"174","Cacicus chrysopterus (Vigors, 1825)","-45.838231","-22.955464","São Paulo","Monteiro Lobato","2018","4","OBS666537336"
"175","Cacicus chrysopterus (Vigors, 1825)","-54.140131","-25.538298","Misiones","Surucuá Reserva & Ecolodge","2018","4","OBS607313840"
"176","Cacicus chrysopterus (Vigors, 1825)","-45.490709","-22.693548","São Paulo","São Paulo, BR (-22,694, -45,491)","2018","4","OBS600715006"
"177","Cacicus chrysopterus (Vigors, 1825)","-58.327441","-26.386317","Formosa","Unnamed Road, Formosa, AR (-26.386, -58.32). EaDL","2018","4","OBS607691905"
"178","Cacicus chrysopterus (Vigors, 1825)","-53.732667","-32.132167","Cerro Largo","Paso Centurión","2018","4","OBS617826336"
"179","Cacicus chrysopterus (Vigors, 1825)","-57.677064","-25.244124","Presidente Hayes","Puente Parara","2018","4","OBS597194155"
"180","Cacicus chrysopterus (Vigors, 1825)","-65.509621","-24.732889","Salta","Mirador de las Rapaces","2018","4","OBS596219082"
"181","Cacicus chrysopterus (Vigors, 1825)","-65.373802","-24.55212","Salta","Dique Campo Alegre","2018","4","OBS608808541"
"182","Cacicus chrysopterus (Vigors, 1825)","-46.471603","-23.847002","São Paulo","Estrada Velha (Caminho do Gaseoduto e Trilhas Adjacentes)","2018","4","OBS596746645"
"183","Cacicus chrysopterus (Vigors, 1825)","-45.25155","-22.575656","Minas Gerais","Delfim Moreira--Barreira","2018","4","OBS604796610"
"184","Cacicus chrysopterus (Vigors, 1825)","-58.503964","-26.542533","Formosa","Camino Payaguá","2018","4","OBS607923722"
"185","Cacicus chrysopterus (Vigors, 1825)","-58.146011","-26.172847","Formosa","Formosa--Paseo Costanero","2018","4","OBS607081782"
"186","Cacicus chrysopterus (Vigors, 1825)","-56.713011","-20.535826","Mato Grosso do Sul","Bodoquena","2018","4","OBS609095557"
"187","Cacicus chrysopterus (Vigors, 1825)","-64.898776","-23.675826","Jujuy","Ruta Provincial 83, Jujuy, AR (-23,676, -64,899)","2018","4","OBS603747776"
"188","Cacicus chrysopterus (Vigors, 1825)","-56.431253","-20.260224","Mato Grosso do Sul","Arrozal de Miranda","2018","4","OBS609032960"
"189","Cacicus chrysopterus (Vigors, 1825)","-44.930845","-23.12925","São Paulo","Cunha--Lavandário","2018","4","OBS595798962"
"190","Cacicus chrysopterus (Vigors, 1825)","-55.566085","-27.462129","Misiones","Cerro Santa Ana--Complejo Don Rodolfo","2018","4","OBS635599842"
"191","Cacicus chrysopterus (Vigors, 1825)","-44.734746","-22.362522","Minas Gerais","PN Itatiaia  (parte alta), Itamonte, Minas Gerais, BR (-22,363, -44,735)","2018","4","OBS608308976"
"192","Cacicus chrysopterus (Vigors, 1825)","-50.554383","-29.503001","Rio Grande do Sul","São Francisco de Paula--Itagiba","2018","4","OBS596794036"
"193","Cacicus chrysopterus (Vigors, 1825)","-45.588619","-22.70355","São Paulo","Campos do Jordão--Pico do Imbiri","2018","4","OBS605052773"
"194","Cacicus chrysopterus (Vigors, 1825)","-57.66492","-30.19806","Corrientes","Campo Militar Grl. Avalos","2018","4","OBS608979602"
"195","Cacicus chrysopterus (Vigors, 1825)","-65.387009","-24.15869","Jujuy","Ruta Nacional 9, Villa Jardín de Reyes, Jujuy, AR (-24,159, -65,387)","2018","4","OBS614298855"
"196","Cacicus chrysopterus (Vigors, 1825)","-64.392789","-24.103275","Jujuy",NA,"2018","4","20491721"
"197","Cacicus chrysopterus (Vigors, 1825)","-58.754861","-26.93694","Chaco","LAS ROSAS","2018","4","OBS599590156"
"198","Cacicus chrysopterus (Vigors, 1825)","-57.905489","-25.855981","Formosa","Colonia Dalmacia","2018","4","OBS602333454"
"199","Cacicus chrysopterus (Vigors, 1825)","-58.722231","-27.055964","Chaco","Unnamed Road, Chaco, AR (-27.056, -58.722)","2018","4","OBS596194991"
"200","Cacicus chrysopterus (Vigors, 1825)","-58.268352","-26.453822","Formosa","Corta Pick","2018","4","OBS604193374"
"201","Cacicus chrysopterus (Vigors, 1825)","-55.964846","-20.09562","Mato Grosso do Sul","Pousada Aguape","2018","4","OBS609060546"
"202","Cacicus chrysopterus (Vigors, 1825)","-52.461553","-31.449128","Rio Grande do Sul","Arroio do Padre BR-RS (-31,4491,-52,4616)","2018","4","OBS609644179"
"203","Cacicus chrysopterus (Vigors, 1825)","-65.254369","-24.453088","Jujuy","Dique Las Maderas","2018","4","OBS603537447"
"204","Cacicus chrysopterus (Vigors, 1825)","-44.828996","-23.175727","Rio de Janeiro","Rio de Janeiro, BR (-23,176, -44,829)","2018","4","OBS615661178"
"205","Cacicus chrysopterus (Vigors, 1825)","-50.602276","-29.573494","Rio Grande do Sul","Taquara--Chapada","2018","4","OBS596787106"
"206","Cacicus chrysopterus (Vigors, 1825)","-58.484428","-26.507603","Formosa","Yatay","2018","4","OBS594564593"
"207","Cacicus chrysopterus (Vigors, 1825)","-57.67465","-30.35405","Corrientes","Club Nautico","2018","4","OBS608165844"
"208","Cacicus chrysopterus (Vigors, 1825)","-53.726301","-32.142753","Cerro Largo","Localidad desconocida - (-32,143, -53,726)","2018","4","OBS598246485"
"209","Cacicus chrysopterus (Vigors, 1825)","-65.29089","-24.419721","Jujuy","Dique La Ciénaga","2018","4","OBS609395681"
"210","Cacicus chrysopterus (Vigors, 1825)","-53.8405","-26.425583","Misiones","PP Piñalito y alrededores (AICA MI14)","2018","4","OBS636212816"
"211","Cacicus chrysopterus (Vigors, 1825)","-50.581111","-29.458333","Rio Grande do Sul","São Francisco de Paula--Pousada Recanto da Mata","2018","4","OBS599488935"
"212","Cacicus chrysopterus (Vigors, 1825)","-52.525556","-30.925","Rio Grande do Sul","Encruzilhada do Sul--Abranjo","2018","4","OBS608796961"
"213","Cacicus chrysopterus (Vigors, 1825)","-68.027","-16.358356","La Paz","Yungas Road Cumbre--Bogs","2018","4","OBS600090528"
"214","Cacicus chrysopterus (Vigors, 1825)","-65.175277","-24.845082","Salta","Quebrada De Las Horquetas","2018","4","OBS607414081"
"215","Cacicus chrysopterus (Vigors, 1825)","-46.288919","-23.767436","São Paulo","PNM Nascentes de Paranapiacaba-Estrada do Taquaruçu","2018","4","OBS596292024"
"216","Cacicus chrysopterus (Vigors, 1825)","-59.553907","-30.214798","Corrientes","Finca Mombiri","2018","4","OBS607282253"
"217","Cacicus chrysopterus (Vigors, 1825)","-58.771926","-26.920493","Chaco","Unnamed Road, Chaco, AR (-26,92, -58,772)","2018","4","OBS596687169"
"218","Cacicus chrysopterus (Vigors, 1825)","-59.553735","-30.214358","Corrientes","Ruta Provincial 31, Corrientes, AR (-30.214, -59.554)","2018","4","OBS607935753"
"219","Cacicus chrysopterus (Vigors, 1825)","-58.263974","-26.437915","Formosa","Riacho Corta Pick","2018","4","OBS606078266"
"220","Cacicus chrysopterus (Vigors, 1825)","-45.229579","-22.568917","Minas Gerais","Piquete -- Trilha Do Pico Do Ataque.","2018","4","OBS604164211"
"221","Cacicus chrysopterus (Vigors, 1825)","-59.517652","-26.942888","Chaco","Colonia Elisa, Chaco, AR (-26.943, -59.518)","2018","5","OBS613042734"
"222","Cacicus chrysopterus (Vigors, 1825)","-58.042424","-26.852331","Ñeembucú","Estancia Santa Ana","2018","5","OBS622400067"
"223","Cacicus chrysopterus (Vigors, 1825)","-58.704929","-27.038028","Chaco","La Leonesa","2018","5","OBS624992703"
"224","Cacicus chrysopterus (Vigors, 1825)","-54.610462","-26.409398","Misiones","Eldorado","2018","5","OBS614225169"
"225","Cacicus chrysopterus (Vigors, 1825)","-58.286891","-27.147603","Ñeembucú","General Diaz - Mayor Martinez Road","2018","5","OBS624000937"
"226","Cacicus chrysopterus (Vigors, 1825)","-59.036107","-27.278548","Chaco","Establecimiento San Rafael","2018","5","OBS618079313"
"227","Cacicus chrysopterus (Vigors, 1825)","-44.611037","-22.444906","Rio de Janeiro","PN do Itatiaia--Parte Baixa (Hotéis Ype, Donati, Simon; 400-800m)","2018","5","OBS623622751"
"228","Cacicus chrysopterus (Vigors, 1825)","-59.015518","-26.892545","Chaco","El Cachapé (AICA CH01)","2018","5","OBS625866923"
"229","Cacicus chrysopterus (Vigors, 1825)","-58.275089","-26.462659","Formosa","Riacho Cortapick","2018","5","OBS618274857"
"230","Cacicus chrysopterus (Vigors, 1825)","-57.42455","-28.6553","Corrientes","Ea. Rincón del Socorro (AICA CR10)","2018","5","OBS625092086"
"231","Cacicus chrysopterus (Vigors, 1825)","-44.612127","-22.328345","Minas Gerais",NA,"2018","5","14025989"
"232","Cacicus chrysopterus (Vigors, 1825)","-45.104885","-23.354864","São Paulo","PE Serra do Mar--Núcleo Santa Virgínia","2018","5","OBS612910040"
"233","Cacicus chrysopterus (Vigors, 1825)","-47.561188","-24.00366","São Paulo","Trilha dos Tucanos","2018","5","OBS612251331"
"234","Cacicus chrysopterus (Vigors, 1825)","-55.791055","-27.640253","Misiones","Ruta 205 a Fachinal","2018","5","OBS612734785"
"235","Cacicus chrysopterus (Vigors, 1825)","-60.327238","-31.723328","Entre Ríos","Parque Escolar Rural Enrique Berduc","2018","5","OBS616196405"
"236","Cacicus chrysopterus (Vigors, 1825)","-52.769201","-27.111548","Santa Catarina","Guatambú - Propriedade particular, prox. a FLONA","2018","5","OBS617115258"
"237","Cacicus chrysopterus (Vigors, 1825)","-52.821895","-30.481741","Rio Grande do Sul","Piquiri, Encruzilhada do Sul,  Rio Grande do Sul, BR (-30,482, -52,822)","2018","5","OBS612838786"
"238","Cacicus chrysopterus (Vigors, 1825)","-65.34404","-24.271027","Jujuy","Los Alisos","2018","5","OBS612846468"
"239","Cacicus chrysopterus (Vigors, 1825)","-63.743863","-22.105761","Salta","Itiyuro-Tuyunti","2018","5","OBS635803633"
"240","Cacicus chrysopterus (Vigors, 1825)","-52.432433","-26.672484","Santa Catarina","Ipuaçu - Aldeia Indígena Caigang","2018","5","OBS617276410"
"241","Cacicus chrysopterus (Vigors, 1825)","-56.866667","-26.516667","Paraguarí","Estancia La Graciela, Dpto. Misiones (Ñeembucú)","2018","5","OBS611874048"
"242","Cacicus chrysopterus (Vigors, 1825)","-53.656669","-28.680046","Rio Grande do Sul","Cruz Alta","2018","5","OBS611432370"
"243","Cacicus chrysopterus (Vigors, 1825)","-59.052361","-27.444249","Chaco","Aeropuerto Resistencia","2018","5","OBS624719357"
"244","Cacicus chrysopterus (Vigors, 1825)","-65.560452","-25.10011","Salta","Cielo Verde","2018","5","OBS612258419"
"245","Cacicus chrysopterus (Vigors, 1825)","-45.478431","-22.703137","São Paulo","Estrada da Romaria--Até pousada Sta. Maria da Serra","2018","5","OBS612696515"
"246","Cacicus chrysopterus (Vigors, 1825)","-58.267193","-26.452823","Formosa","Riacho Cortapick","2018","5","OBS618274922"
"247","Cacicus chrysopterus (Vigors, 1825)","-58.311674","-26.854746","Ñeembucú","Margin del Rio Paraguay, Pilar","2018","5","OBS619079807"
"248","Cacicus chrysopterus (Vigors, 1825)","-48.451969","-24.245576","São Paulo","(-24,2456,-48,4520)","2018","5","OBS623033466"
"249","Cacicus chrysopterus (Vigors, 1825)","-58.736043","-26.991613","Chaco","La Leonesa - riacho Quia","2018","5","OBS622797083"
"250","Cacicus chrysopterus (Vigors, 1825)","-51.526474","-28.962032","Rio Grande do Sul","Propriedade Romildo Ceppo","2018","5","OBS613508393"
"251","Cacicus chrysopterus (Vigors, 1825)","-46.743228","-23.985753","São Paulo","Marsilac, São Paulo BR-SP (-23.9858,-46.7432)","2018","5","OBS612085686"
"252","Cacicus chrysopterus (Vigors, 1825)","-58.160115","-25.985098","Formosa","selva en galería, cerca de Capilla del Monte","2018","5","OBS612934819"
"253","Cacicus chrysopterus (Vigors, 1825)","-65.89202","-17.171881","Cochabamba","Tablas Monte Area","2018","5","OBS613026663"
"254","Cacicus chrysopterus (Vigors, 1825)","-45.588995","-22.705318","São Paulo","Campos do Jordão - SP","2018","5","OBS623853927"
"255","Cacicus chrysopterus (Vigors, 1825)","-65.311721","-24.165999","Jujuy","Doctor Gabriel Cunado, San Salvador de Jujuy, Jujuy, AR (-24.166, -65.312)","2018","5","OBS614303922"
"256","Cacicus chrysopterus (Vigors, 1825)","-59.04905","-27.287962","Chaco","Unnamed Road, Chaco, AR (-27.288, -59.049)","2018","5","OBS617533578"
"257","Cacicus chrysopterus (Vigors, 1825)","-65.356968","-24.161204","Jujuy","Pasteur, San Salvador de Jujuy, Jujuy, AR (-24.161, -65.357)","2018","5","OBS623848010"
"258","Cacicus chrysopterus (Vigors, 1825)","-51.986318","-26.512746","Paraná","IFPR--Campus Palmas","2018","5","OBS615254148"
"259","Cacicus chrysopterus (Vigors, 1825)","-51.04324","-30.120634","Rio Grande do Sul","Alvinegro Sport Club, Branquinha, Viamão, RS","2018","5","OBS611467098"
"260","Cacicus chrysopterus (Vigors, 1825)","-57.722468","-25.201602","Presidente Hayes","Jose Falcon - ruta12","2018","5","OBS611550664"
"261","Cacicus chrysopterus (Vigors, 1825)","-55.738535","-27.490913","Misiones","Candelaria","2018","5","OBS686693438"
"262","Cacicus chrysopterus (Vigors, 1825)","-58.672585","-27.472005","Corrientes","Amokañy, Santa Ana de los Guácaras, San Cosme, Corrientes, AR","2018","5","OBS611462010"
"263","Cacicus chrysopterus (Vigors, 1825)","-44.947565","-22.386335","Minas Gerais","Passa Quatro - MG, Passa Quatro BR-MG (-22,3863,-44,9476)","2018","5","OBS609109352"
"264","Cacicus chrysopterus (Vigors, 1825)","-58.057251","-28.011377","Corrientes","PN Mburucuyá (AICA CR07)","2018","5","OBS623053352"
"265","Cacicus chrysopterus (Vigors, 1825)","-45.656768","-22.852414","São Paulo","Estrada do Pico Agudo, Santo Antônio do Pinhal","2018","5","OBS610477227"
"266","Cacicus chrysopterus (Vigors, 1825)","-58.836","-26.247333","Formosa","Ea. & Reserva El Bagual (AICA FO03)","2018","5","OBS613532502"
"267","Cacicus chrysopterus (Vigors, 1825)","-67.890739","-16.29038","La Paz","Sillutinkara","2018","5","OBS614142486"
"268","Cacicus chrysopterus (Vigors, 1825)","-59.571218","-29.246235","Santa Fe","Isla La Fuente, Puerto Reconquista","2018","5","OBS623814879"
"269","Cacicus chrysopterus (Vigors, 1825)","-58.30157","-26.84871","Ñeembucú","Baso Militar, Pilar, Transecto3 Punto1","2018","5","OBS611120068"
"270","Cacicus chrysopterus (Vigors, 1825)","-44.839887","-23.167177","Rio de Janeiro","“Rodovia Vice Prefeito Salvador Pacetti”, São Paulo, BR (-23,167, -44,84)","2018","5","OBS615151988"
"271","Cacicus chrysopterus (Vigors, 1825)","-53.899269","-27.150505","Misiones","PP Moconá (AICA MI15)","2018","5","OBS620653832"
"272","Cacicus chrysopterus (Vigors, 1825)","-45.13815","-23.345877","São Paulo","Trilha do Rio Ipiranga","2018","5","OBS623332703"
"273","Cacicus chrysopterus (Vigors, 1825)","-45.293951","-22.506995","Minas Gerais","BR-Minas Gerais-Delfim-Estrada Pico Dos Marins Moreira - -22,507x-45,294 - 26 de mar de 2017 04:39","2018","5","OBS612120473"
"274","Cacicus chrysopterus (Vigors, 1825)","-65.376373","-24.762443","Salta","Cerro de la Virgen","2018","5","OBS622323282"
"275","Cacicus chrysopterus (Vigors, 1825)","-53.762844","-32.139231","Cerro Largo","Paso Centurión Tours","2018","5","OBS618828342"
"276","Cacicus chrysopterus (Vigors, 1825)","-58.01273","-26.74491","Ñeembucú","Ruta Tacuaras - San Juan Bautista de Neembucu, Transecto5 Punto9","2018","5","OBS614738090"
"277","Cacicus chrysopterus (Vigors, 1825)","-45.232507","-22.540341","Minas Gerais","Estrada De Acesso Ao Pico Dos Marins -- Delfim Moreira","2018","5","OBS627228235"
"278","Cacicus chrysopterus (Vigors, 1825)","-52.815163","-28.575326","Rio Grande do Sul","Banhado Linha Glória","2018","5","OBS624083955"
"279","Cacicus chrysopterus (Vigors, 1825)","-64.898803","-23.675684","Jujuy","Loma Chata","2018","5","OBS613517729"
"280","Cacicus chrysopterus (Vigors, 1825)","-56.839358","-26.094144","Paraguarí","PY-Paraguarí-Sendero a La Rosada (-26.0941,-56.8394)","2018","5","OBS621150541"
"281","Cacicus chrysopterus (Vigors, 1825)","-45.604715","-22.715195","São Paulo","Campos do Jordão - SP","2018","5","OBS626865529"
"282","Cacicus chrysopterus (Vigors, 1825)","-65.374759","-24.755378","Salta","Cerro de la Virgen","2018","5","OBS608473847"
"283","Cacicus chrysopterus (Vigors, 1825)","-57.538518","-25.458306","Central","Ytororo, Ypané, Tetãvore Central, PY (-25,458, -57,539)","2018","5","OBS611416985"
"284","Cacicus chrysopterus (Vigors, 1825)","-55.567818","-27.423939","Misiones","Cerro Santa Ana--Acceso","2018","5","OBS612768839"
"285","Cacicus chrysopterus (Vigors, 1825)","-49.036682","-25.507897","Paraná","Represa Piraquara 2","2018","5","OBS624085395"
"286","Cacicus chrysopterus (Vigors, 1825)","-60.994892","-25.009978","Chaco","PN El Impenetrable","2018","5","OBS625793128"
"287","Cacicus chrysopterus (Vigors, 1825)","-57.733333","-25","Presidente Hayes","Estancias Golondrina: El Trébol, Pte. Hayes (Bajo Chaco)","2018","5","OBS611479002"
"288","Cacicus chrysopterus (Vigors, 1825)","-52.406115","-26.39087","Paraná","Clevelândia--Sítio Santo Antônio","2018","5","OBS617232219"
"289","Cacicus chrysopterus (Vigors, 1825)","-57.641833","-30.196","Artigas","Área de Protección Ambiental Rincón de Franquía","2018","5","OBS612691304"
"290","Cacicus chrysopterus (Vigors, 1825)","-48.412682","-24.264915","São Paulo","Ribeirão Grande SP","2018","5","OBS624529986"
"291","Cacicus chrysopterus (Vigors, 1825)","-58.511366","-27.296266","Corrientes","San Cosme--Río Paraná","2018","5","OBS615848464"
"292","Cacicus chrysopterus (Vigors, 1825)","-48.450086","-24.219308","São Paulo","(-24,2193,-48,4501)","2018","5","OBS622518199"
"293","Cacicus chrysopterus (Vigors, 1825)","-58.969386","-27.334264","Chaco","Los Chaguares, Colonia Benitez, Chaco, AR (-27.334, -58.969)","2018","5","OBS614540928"
"294","Cacicus chrysopterus (Vigors, 1825)","-58.463273","-26.572408","Formosa","Camino a Payaguá 3","2018","5","OBS612615200"
"295","Cacicus chrysopterus (Vigors, 1825)","-57.672772","-25.348758","Formosa","Pto. Pilcomayo","2018","5","OBS613543304"
"296","Cacicus chrysopterus (Vigors, 1825)","-58.31219","-26.84212","Ñeembucú","Baso Militar, Pilar, Transecto3 Punto8","2018","5","OBS649105491"
"297","Cacicus chrysopterus (Vigors, 1825)","-65.36818","-24.155596","Jujuy","Humedales Dique Los Molinos--Ladera NE","2018","5","OBS625275315"
"298","Cacicus chrysopterus (Vigors, 1825)","-47.563797","-24.007119","São Paulo","Trilha do pinto do mato","2018","5","OBS623834882"
"299","Cacicus chrysopterus (Vigors, 1825)","-55.683925","-24.209711","Canindeyú","Comunidad Aché Chupa Pou","2018","5","OBS623563525"
"300","Cacicus chrysopterus (Vigors, 1825)","-49.015498","-25.385046","Paraná","Paraná, BR (-25,385, -49,015)","2018","5","OBS611299323"
"301","Cacicus chrysopterus (Vigors, 1825)","-48.273625","-24.308774","São Paulo","Parque Estadual Intervales","2018","5","OBS614839581"
"302","Cacicus chrysopterus (Vigors, 1825)","-58.730771","-27.433268","Corrientes","Ruta Nacional 12, Corrientes, AR (-27,433, -58,731)","2018","5","OBS612491924"
"303","Cacicus chrysopterus (Vigors, 1825)","-55.613706","-27.502064","Misiones","AR-Provincia de Misiones-Candelaria (-27,5021,-55,6137)","2018","5","OBS621086256"
"304","Cacicus chrysopterus (Vigors, 1825)","-57.558618","-25.481106","Central","Desembocadura, Arroyo Avay - Villeta","2018","5","OBS625085472"
"305","Cacicus chrysopterus (Vigors, 1825)","-65.39095","-24.620578","Salta","La Caldera. El Balcón. Guaranguay, Salta, AR (-24.621, -65.391)","2018","5","OBS616962214"
"306","Cacicus chrysopterus (Vigors, 1825)","-45.283032","-22.557979","Minas Gerais","BR-Minas Gerais-Delfim Moreira-Unnamed Road -Haras Serra Bonita. -22,558x-45,283","2018","5","OBS619320883"
"307","Cacicus chrysopterus (Vigors, 1825)","-51.138131","-29.442929","Rio Grande do Sul","Picada Café--área geral","2018","5","OBS626968369"
"308","Cacicus chrysopterus (Vigors, 1825)","-48.448433","-24.251487","São Paulo","Guapiara SP","2018","6","OBS631098859"
"309","Cacicus chrysopterus (Vigors, 1825)","-59.184948","-30.387779","Entre Ríos","Área Natural Protegida Don Sebastián","2018","6","OBS631711247"
"310","Cacicus chrysopterus (Vigors, 1825)","-55.965772","-31.609241","Tacuarembó","Paso Ceferino","2018","6","OBS634160667"
"311","Cacicus chrysopterus (Vigors, 1825)","-58.779087","-26.920845","Chaco","Establecimiento Ibiri","2018","6","OBS627554059"
"312","Cacicus chrysopterus (Vigors, 1825)","-58.717589","-27.051377","Chaco","LOTR 4","2018","6","OBS629787606"
"313","Cacicus chrysopterus (Vigors, 1825)","-54.102167","-26.632333","Misiones","PP Araucaria (AICA MI12)","2018","6","OBS631622054"
"314","Cacicus chrysopterus (Vigors, 1825)","-65.369693","-24.00516","Jujuy","Ruta Provincial 29, Jujuy, AR (-24.005, -65.37)","2018","6","OBS635367856"
"315","Cacicus chrysopterus (Vigors, 1825)","-58.212401","-26.375338","Formosa","Puerto Aquino (AICA FO02)","2018","6","OBS634013715"
"316","Cacicus chrysopterus (Vigors, 1825)","-57.692985","-25.230618","Presidente Hayes","Ruta 12, Km 4","2018","6","OBS633978848"
"317","Cacicus chrysopterus (Vigors, 1825)","-49.466586","-25.355118","Paraná","Campo Magro, Paraná, BR","2018","6","OBS636202275"
"318","Cacicus chrysopterus (Vigors, 1825)","-65.298579","-23.955972","Jujuy","Ruta Provincial 29, Jujuy, AR (-23,956, -65,299)","2018","6","OBS635366177"
"319","Cacicus chrysopterus (Vigors, 1825)","-54.896686","-26.838412","Misiones","Reserva Natural Privada Curindy","2018","6","OBS686736817"
"320","Cacicus chrysopterus (Vigors, 1825)","-47.01974","-22.902525","São Paulo",NA,"2018","6","13270468"
"321","Cacicus chrysopterus (Vigors, 1825)","-65.330407","-24.001557","Jujuy","Ruta Provincial 29, Jujuy, AR (-24,002, -65,33)","2018","6","OBS635805004"
"322","Cacicus chrysopterus (Vigors, 1825)","-57.51","-25.03","Presidente Hayes","Palma Sola, Estancia, Pte. Hayes (Bajo Chaco)","2018","6","OBS634129800"
"323","Cacicus chrysopterus (Vigors, 1825)","-49.013214","-27.4951","Santa Catarina","Rua Seis, Santa Catarina, BR (-27,495, -49,013)","2018","6","OBS634427567"
"324","Cacicus chrysopterus (Vigors, 1825)","-64.865899","-23.107207","Salta","Quenoal","2018","6","OBS639274755"
"325","Cacicus chrysopterus (Vigors, 1825)","-54.14615","-26.91156","Misiones","Lote 13, Yaboty Biosphere Reserve","2018","6","OBS631323569"
"326","Cacicus chrysopterus (Vigors, 1825)","-64.500981","-23.934392","Jujuy","Laguna San Miguel","2018","6","OBS636328479"
"327","Cacicus chrysopterus (Vigors, 1825)","-58.044155","-26.035867","Formosa","de Mojón a Boca Pilagá","2018","6","OBS631289698"
"328","Cacicus chrysopterus (Vigors, 1825)","-45.848951","-23.53578","São Paulo","Salesópolis--área geral","2018","6","OBS633957734"
"329","Cacicus chrysopterus (Vigors, 1825)","-57.187915","-28.541345","Corrientes","Pedraplen,Cnia. Carlos Pellegrini","2018","6","OBS632506764"
"330","Cacicus chrysopterus (Vigors, 1825)","-65.406272","-24.316253","Jujuy","Garita","2018","6","OBS639002063"
"331","Cacicus chrysopterus (Vigors, 1825)","-60.31374","-24.369772","Formosa","Bañado La Estrella Este (AICA FO10)--Vertedero","2018","6","OBS634012955"
"332","Cacicus chrysopterus (Vigors, 1825)","-56.372599","-20.241092","Mato Grosso do Sul","Miranda, MS","2018","6","OBS632684246"
"333","Cacicus chrysopterus (Vigors, 1825)","-65.336543","-24.002121","Jujuy","Ruta Provincial 29, Jujuy, AR (-24.002, -65.337)","2018","6","OBS635367134"
"334","Cacicus chrysopterus (Vigors, 1825)","-57.196468","-28.546251","Corrientes","Laguna Iberá--Centro de Interpretación Agua Brillantes","2018","6","OBS666603124"
"335","Cacicus chrysopterus (Vigors, 1825)","-65.25223","-24.052885","Jujuy","(-24,0529,-65,2522) Rio cuesta larga","2018","6","OBS635359696"
"336","Cacicus chrysopterus (Vigors, 1825)","-48.955722","-25.585569","Paraná","Chácara Dona Keiko","2018","6","OBS635258087"
"337","Cacicus chrysopterus (Vigors, 1825)","-64.936096","-23.909447","Jujuy","PN Calilegua - Sector Sur","2018","6","OBS636329187"
"338","Cacicus chrysopterus (Vigors, 1825)","-54.168783","-25.857317","Misiones","PP Urugua-í Seccional Uruzú","2018","6","OBS629389959"
"339","Cacicus chrysopterus (Vigors, 1825)","-45.014836","-23.226672","São Paulo","Cunha, São Paulo, BR (-23,227, -45,015)","2018","6","OBS629625562"
"340","Cacicus chrysopterus (Vigors, 1825)","-60.605327","-31.826989","Entre Ríos","PN Pre-Delta--La Jaula","2018","6","OBS634170501"
"341","Cacicus chrysopterus (Vigors, 1825)","-58.681726","-26.978574","Chaco","Establecimiento ""El X""","2018","6","OBS635167984"
"342","Cacicus chrysopterus (Vigors, 1825)","-47.492253","-23.995142","São Paulo","Tapiraí--Mata Montana (Acesso Legado das Águas)","2018","6","OBS634759380"
"343","Cacicus chrysopterus (Vigors, 1825)","-65.453133","-24.122003","Jujuy","Ruta Provincial 4, Jujuy, AR (-24.122, -65.453)","2018","6","OBS633000442"
"344","Cacicus chrysopterus (Vigors, 1825)","-44.531193","-22.329971","Rio de Janeiro","Visconde de Mauá--área geral","2018","6","OBS632033416"
"345","Cacicus chrysopterus (Vigors, 1825)","-58.179083","-26.215973","Formosa","Camino a Laguna Oca, Formosa, AR (-26,216, -58,179)","2018","6","OBS635100165"
"346","Cacicus chrysopterus (Vigors, 1825)","-54.14977","-26.89781","Misiones","Lote 13, Yaboty Biosphere Reserve","2018","6","OBS629856615"
"347","Cacicus chrysopterus (Vigors, 1825)","-58.043037","-26.853375","Ñeembucú","Estancia Santa Ana","2018","6","OBS626935889"
"348","Cacicus chrysopterus (Vigors, 1825)","-49.012279","-27.495512","Santa Catarina","Angelina, SC (-27,496, -49,012)","2018","6","OBS634165508"
"349","Cacicus chrysopterus (Vigors, 1825)","-64.67175","-23.118733","Salta","El Naranjo","2018","6","OBS638943650"
"350","Cacicus chrysopterus (Vigors, 1825)","-58.147126","-26.201619","Formosa","Barrera contención Rio Paraguay","2018","6","OBS653850660"
"351","Cacicus chrysopterus (Vigors, 1825)","-59.048767","-27.444916","Chaco",NA,"2018","6","20868240"
"352","Cacicus chrysopterus (Vigors, 1825)","-57.179195","-28.53701","Corrientes","Hospedaje San Cayetano","2018","6","OBS634413950"
"353","Cacicus chrysopterus (Vigors, 1825)","-45.014771","-23.226031","São Paulo","Parque Da Serra Do Mar - núcleo De Cunha.","2018","6","OBS630432302"
"354","Cacicus chrysopterus (Vigors, 1825)","-58.890677","-27.382163","Chaco","Afueras de Colonia Benítez","2018","6","OBS637845518"
"355","Cacicus chrysopterus (Vigors, 1825)","-57.195472","-28.545459","Corrientes","Parque provincial Iberá- Pasarela.","2018","6","OBS630204036"
"356","Cacicus chrysopterus (Vigors, 1825)","-58.230012","-26.535971","Formosa","Callejón  (Herradura)","2018","6","OBS633880580"
"357","Cacicus chrysopterus (Vigors, 1825)","-65.480189","-24.109649","Jujuy","PP Potrero de Yala (AICA JU23)","2018","6","OBS635295432"
"358","Cacicus chrysopterus (Vigors, 1825)","-54.16322","-31.86615","Rio Grande do Sul","Aceguá","2018","6","OBS635459686"
"359","Cacicus chrysopterus (Vigors, 1825)","-44.7445","-23.1603","Rio de Janeiro","Corumbe Paraty","2018","6","OBS644584572"
"360","Cacicus chrysopterus (Vigors, 1825)","-49.364576","-26.571045","Santa Catarina","(-26,571, -49,365)","2018","7","OBS643261578"
"361","Cacicus chrysopterus (Vigors, 1825)","-59.409544","-28.147533","Santa Fe","Las Palmitas, Villa Guillermina","2018","7","OBS644687706"
"362","Cacicus chrysopterus (Vigors, 1825)","-65.397228","-24.031258","Jujuy","Jaire, Jujuy, AR (-24.031, -65.397)","2018","7","OBS641677150"
"363","Cacicus chrysopterus (Vigors, 1825)","-65.472164","-24.115617","Jujuy","(-24,116, -65,472)","2018","7","OBS644947860"
"364","Cacicus chrysopterus (Vigors, 1825)","-55.814559","-27.458378","Misiones","Desembocadura Arroyo Garupá","2018","7","OBS639636890"
"365","Cacicus chrysopterus (Vigors, 1825)","-46.06126","-23.679794","São Paulo","Pedra do Sapo","2018","7","OBS641676357"
"366","Cacicus chrysopterus (Vigors, 1825)","-47.080844","-22.867536","São Paulo","Pousada Do Professor, Tapiraí, SP","2018","7","OBS644276193"
"367","Cacicus chrysopterus (Vigors, 1825)","-58.174773","-26.210501","Formosa","(-26,211, -58,175)","2018","7","OBS644804495"
"368","Cacicus chrysopterus (Vigors, 1825)","-65.470859","-24.122369","Jujuy","Ruta Provincial 4, Jujuy, AR (-24,122, -65,471)","2018","7","OBS644947035"
"369","Cacicus chrysopterus (Vigors, 1825)","-58.627465","-26.244718","Formosa","Misión Laishi","2018","7","OBS637957390"
"370","Cacicus chrysopterus (Vigors, 1825)","-50.262773","-29.665901","Rio Grande do Sul","Maquiné--Arredores da Pousada Recanto da Mata","2018","7","OBS640332458"
"371","Cacicus chrysopterus (Vigors, 1825)","-55.710232","-27.557144","Misiones","PP Cañadón de Profundidad","2018","7","OBS643823242"
"372","Cacicus chrysopterus (Vigors, 1825)","-44.609116","-22.435974","Rio de Janeiro","PN do Itatiaia--Trilha dos Três Picos","2018","7","OBS638717967"
"373","Cacicus chrysopterus (Vigors, 1825)","-58.137365","-25.202728","Formosa","AR-Formosa-Pilcomayo (-25,2027,-58,1374)","2018","7","OBS638926291"
"374","Cacicus chrysopterus (Vigors, 1825)","-44.58546","-22.466179","Rio de Janeiro","Itatiaia--CRI","2018","7","OBS638995011"
"375","Cacicus chrysopterus (Vigors, 1825)","-57.421956","-32.810176","Río Negro","Arroyo Grande","2018","7","OBS671095028"
"376","Cacicus chrysopterus (Vigors, 1825)","-51.512607","-27.61649","Rio Grande do Sul","Parque Estadual Espigão Alto","2018","7","OBS636818056"
"377","Cacicus chrysopterus (Vigors, 1825)","-58.172064","-26.205111","Formosa","Camino a Laguna Oca, Formosa, Formosa, AR (-26,205, -58,172)","2018","7","OBS644792609"
"378","Cacicus chrysopterus (Vigors, 1825)","-65.348928","-24.239906","Jujuy","Laguna Roca","2018","7","OBS638015729"
"379","Cacicus chrysopterus (Vigors, 1825)","-57.4145","-28.2485","Corrientes","Lomada de San Alonso (AICA CR11)","2018","7","OBS639365736"
"380","Cacicus chrysopterus (Vigors, 1825)","-64.851235","-23.761968","Jujuy","(-23,7620,-64,8512) Camping","2018","7","OBS644639624"
"381","Cacicus chrysopterus (Vigors, 1825)","-46.077577","-22.861798","Minas Gerais","Monte Verde--Pousada Natureza da Terra","2018","7","OBS640799967"
"382","Cacicus chrysopterus (Vigors, 1825)","-58.933445","-27.530094","Chaco","COLONIA TACUARI","2018","7","OBS642907419"
"383","Cacicus chrysopterus (Vigors, 1825)","-58.169303","-26.201267","Formosa","Camino a Laguna Oca, Formosa, Formosa, AR (-26,201, -58,169)","2018","7","OBS643528084"
"384","Cacicus chrysopterus (Vigors, 1825)","-58.02429","-26.00084","Formosa","Cañada 12","2018","7","OBS647075214"
"385","Cacicus chrysopterus (Vigors, 1825)","-58.868705","-27.42865","Chaco","Unnamed Road, Chaco, AR (-27.429, -58.869)","2018","7","OBS639891581"
"386","Cacicus chrysopterus (Vigors, 1825)","-61.074929","-25.248694","Chaco","Parque Nacional El Impenetrable","2018","7","OBS637886565"
"387","Cacicus chrysopterus (Vigors, 1825)","-44.999971","-23.254429","São Paulo","São Paulo, BR (-23,254, -45)","2018","7","OBS637411795"
"388","Cacicus chrysopterus (Vigors, 1825)","-64.853629","-23.742839","Jujuy","(-23,7428,-64,8536) - Sendero Tataupa","2018","7","OBS643185446"
"389","Cacicus chrysopterus (Vigors, 1825)","-54.20215","-26.94222","Misiones","RNC Papel Misionero","2018","7","OBS639479249"
"390","Cacicus chrysopterus (Vigors, 1825)","-58.699393","-27.164529","Chaco","Laguna El Palmar (AICA CH02)","2018","7","OBS646228928"
"391","Cacicus chrysopterus (Vigors, 1825)","-44.552109","-22.411502","Rio de Janeiro","Penedo--Pousada 3 bacias","2018","7","OBS638729959"
"392","Cacicus chrysopterus (Vigors, 1825)","-58.169432","-26.201381","Formosa","Camino a Laguna Oca, Formosa, Formosa, AR (-26,201, -58,169)","2018","7","OBS643524666"
"393","Cacicus chrysopterus (Vigors, 1825)","-55.522142","-27.106474","Misiones","Puerto Maní, Corpus.","2018","7","OBS686775163"
"394","Cacicus chrysopterus (Vigors, 1825)","-52.77684","-28.382339","Rio Grande do Sul","Granja Pinheiros","2018","7","OBS639688502"
"395","Cacicus chrysopterus (Vigors, 1825)","-44.821473","-23.153105","Rio de Janeiro","Trilha Dos 7 Degraus","2018","7","OBS639757686"
"396","Cacicus chrysopterus (Vigors, 1825)","-65.370518","-24.154933","Jujuy","Dique ""Los Molinos"" (Humedales)","2018","7","OBS643078051"
"397","Cacicus chrysopterus (Vigors, 1825)","-58.164357","-25.983181","Formosa","Ruta Nacional 11, Formosa, AR (-25,983, -58,164)","2018","7","OBS642099297"
"398","Cacicus chrysopterus (Vigors, 1825)","-58.3119","-26.84128","Ñeembucú","Baso Militar, Pilar, Transecto BFLY3 Punto8","2018","7","OBS640544478"
"399","Cacicus chrysopterus (Vigors, 1825)","-44.92594","-23.22694","São Paulo","São Paulo, BR (-23,227, -44,926)","2018","7","OBS643814533"
"400","Cacicus chrysopterus (Vigors, 1825)","-44.61993","-22.42904","Rio de Janeiro","PN do Itatiaia--Piscina do Maromba Trail","2018","7","OBS638498276"
"401","Cacicus chrysopterus (Vigors, 1825)","-49.5239","-26.652637","Santa Catarina","Trilha do macaco","2018","7","OBS639277593"
"402","Cacicus chrysopterus (Vigors, 1825)","-44.724612","-22.36484","Rio de Janeiro","PN do Itatiaia--Agulhas Negras Road (RJ; 2200-2400m)","2018","7","OBS643045954"
"403","Cacicus chrysopterus (Vigors, 1825)","-58.244438","-26.487312","Formosa","Cortapick","2018","7","OBS643526967"
"404","Cacicus chrysopterus (Vigors, 1825)","-58.182573","-26.217538","Formosa","Camino a Laguna Oca, Formosa, AR (-26,218, -58,183)","2018","7","OBS642579459"
"405","Cacicus chrysopterus (Vigors, 1825)","-58.31077","-26.84367","Ñeembucú","Baso Militar, Pilar, Transecto3 Punto7","2018","7","OBS640543908"
"406","Cacicus chrysopterus (Vigors, 1825)","-64.554289","-23.105449","Salta","Unnamed Road, Salta, AR (-23.105, -64.554)","2018","7","OBS637206437"
"407","Cacicus chrysopterus (Vigors, 1825)","-64.515997","-24.316712","Jujuy","Ruta Provincial 6, Jujuy, AR (-24,317, -64,516)","2018","7","OBS642963164"
"408","Cacicus chrysopterus (Vigors, 1825)","-56.376461","-21.09176","Mato Grosso do Sul","Bonito--Chácara Demozzi","2018","7","OBS643423173"
"409","Cacicus chrysopterus (Vigors, 1825)","-46.493318","-23.816883","São Paulo","P1ac3","2018","7","OBS640096405"
"410","Cacicus chrysopterus (Vigors, 1825)","-54.039333","-27.022333","Misiones","Reserva de Biosfera Yabotí (AICA MI15)","2018","7","OBS646396333"
"411","Cacicus chrysopterus (Vigors, 1825)","-65.331531","-24.370554","Jujuy","San Antonio","2018","7","OBS641675447"
"412","Cacicus chrysopterus (Vigors, 1825)","-59.189286","-25.613042","Formosa","1297 Ruta Nacional 81, Formosa, AR (-25,613, -59,189)","2018","7","OBS641190447"
"413","Cacicus chrysopterus (Vigors, 1825)","-52.614577","-28.360362","Rio Grande do Sul","Capão Três Lagoas","2018","7","OBS637944086"
"414","Cacicus chrysopterus (Vigors, 1825)","-58.283333","-26.516667","Formosa","Herradura (AICA FO02)","2018","7","OBS638948879"
"415","Cacicus chrysopterus (Vigors, 1825)","-45.837396","-23.564577","São Paulo","Usina Parque / Museu da Energia de Salesópolis","2018","7","OBS642509305"
"416","Cacicus chrysopterus (Vigors, 1825)","-64.418727","-24.260127","Jujuy","El Fuerte, Jujuy, AR (-24,26, -64,419)","2018","7","OBS642964175"
"417","Cacicus chrysopterus (Vigors, 1825)","-57.305409","-25.410049","Central","PY-Departamento Central (-25,4100,-57,3054)","2018","7","OBS641655501"
"418","Cacicus chrysopterus (Vigors, 1825)","-58.30876","-26.84627","Ñeembucú","Baso Militar, Pilar, Transecto3 Punto5","2018","7","OBS640546045"
"419","Cacicus chrysopterus (Vigors, 1825)","-52.19686","-29.272746","Rio Grande do Sul","Tamanduá","2018","7","OBS641833982"
"420","Cacicus chrysopterus (Vigors, 1825)","-60.456279","-27.076915","Chaco","Unnamed Road, Chaco, AR (-27.077, -60.456)","2018","7","OBS640815803"
"421","Cacicus chrysopterus (Vigors, 1825)","-45.597437","-22.699812","São Paulo","Condomínio Cidade do Sol,Campos do Jordão, SP (-22,7, -45,597)","2018","7","OBS642516568"
"422","Cacicus chrysopterus (Vigors, 1825)","-47.475788","-24.005311","São Paulo","BR-São Paulo-Tapiraí-Unnamed Road - -24,005x-47,476","2018","7","OBS643836739"
"423","Cacicus chrysopterus (Vigors, 1825)","-52.72766","-28.580938","Rio Grande do Sul","Lagoa Azul, Victor Graeff-Rio Grande do Sul, BR (-28,581, -52,728)","2018","7","OBS642610955"
"424","Cacicus chrysopterus (Vigors, 1825)","-46.500205","-23.812164","São Paulo","P1ac2","2018","7","OBS640097233"
"425","Cacicus chrysopterus (Vigors, 1825)","-50.80513","-29.01607","Rio Grande do Sul","95400-000, Caxias do Sul BR-RS (-29,0161,-50,8051)","2018","7","OBS644786572"
"426","Cacicus chrysopterus (Vigors, 1825)","-60.535354","-24.309563","Formosa","Fortin Soledad- Seccion Este.","2018","7","OBS641662103"
"427","Cacicus chrysopterus (Vigors, 1825)","-44.746156","-22.36607","Minas Gerais","PN do Itatiaia--Agulhas Negras Road (MG; 1700-2200m)","2018","7","OBS643537394"
"428","Cacicus chrysopterus (Vigors, 1825)","-44.624233","-22.406585","Rio de Janeiro","PN do Itatiaia--área geral (Partes Baixa e Alta)","2018","7","OBS644427585"
"429","Cacicus chrysopterus (Vigors, 1825)","-54.197289","-26.971808","Misiones","Reserva Privada Papel Misionera","2018","7","OBS641084419"
"430","Cacicus chrysopterus (Vigors, 1825)","-57.541498","-25.110616","Presidente Hayes","Villa Hayes","2018","7","OBS638491466"
"431","Cacicus chrysopterus (Vigors, 1825)","-45.397195","-22.629471","Minas Gerais","Estrada Divisa Charco/Parque ESTADUAL DE CAMPOS DO JORDÃO--MG/SP","2018","7","OBS646019749"
"432","Cacicus chrysopterus (Vigors, 1825)","-64.496304","-24.301699","Jujuy","Ruta Provincial 6, Jujuy, AR (-24,302, -64,496)","2018","7","OBS642963764"
"433","Cacicus chrysopterus (Vigors, 1825)","-59.618404","-26.793218","Chaco","Parque Nacional Chaco","2018","7","OBS663288530"
"434","Cacicus chrysopterus (Vigors, 1825)","-55.770753","-27.450591","Misiones","Costanera Candelaria","2018","7","OBS644197892"
"435","Cacicus chrysopterus (Vigors, 1825)","-54.19055","-26.97518","Misiones","RNC Papel Misionero","2018","7","OBS639509350"
"436","Cacicus chrysopterus (Vigors, 1825)","-54.18143","-26.97629","Misiones","RNC Papel Misionero","2018","7","OBS644063553"
"437","Cacicus chrysopterus (Vigors, 1825)","-44.737891","-22.366355","Minas Gerais","BR-485, Itamonte BR-MG (-22.3664,-44.7379)","2018","7","OBS641124029"
"438","Cacicus chrysopterus (Vigors, 1825)","-49.528277","-28.492456","Santa Catarina","Trilha Cachoeira do Salto Branco","2018","7","OBS636102775"
"439","Cacicus chrysopterus (Vigors, 1825)","-54.22585","-26.91656","Misiones","Ruta 15, Mirador Guarani","2018","7","OBS643984228"
"440","Cacicus chrysopterus (Vigors, 1825)","-56.315957","-19.964725","Mato Grosso do Sul","Caiman Lodge-Baía Circuit","2018","7","OBS636524662"
"441","Cacicus chrysopterus (Vigors, 1825)","-65.469267","-24.145028","Jujuy","Camino entre Termas y Lagunas","2018","7","OBS641401113"
"442","Cacicus chrysopterus (Vigors, 1825)","-58.219048","-25.128796","Formosa","AR-Formosa-Pilcomayo (-25,1288,-58,2190)","2018","7","OBS639050348"
"443","Cacicus chrysopterus (Vigors, 1825)","-45.426492","-22.649939","São Paulo","PE Campos do Jordão--Divisa com MG","2018","7","OBS646023320"
"444","Cacicus chrysopterus (Vigors, 1825)","-58.053192","-26.03339","Formosa","Mojón de Fierro","2018","7","OBS641936196"
"445","Cacicus chrysopterus (Vigors, 1825)","-49.284335","-25.378326","Paraná","Curitiba--Parque Tanguá","2018","7","OBS643656572"
"446","Cacicus chrysopterus (Vigors, 1825)","-65.380147","-24.757394","Salta","Cerro de la Virgen","2018","7","OBS636826240"
"447","Cacicus chrysopterus (Vigors, 1825)","-54.19724","-26.97157","Misiones","RNC Papel Misionero","2018","7","OBS641844638"
"448","Cacicus chrysopterus (Vigors, 1825)","-51.895997","-26.56428","Paraná","Palmas--Estância Guamirim","2018","7","OBS639729687"
"449","Cacicus chrysopterus (Vigors, 1825)","-53.866362","-27.140378","Rio Grande do Sul","Parque Estadual do Turvo","2018","7","OBS638551236"
"450","Cacicus chrysopterus (Vigors, 1825)","-58.169206","-26.201458","Formosa","Camino a Laguna Oca, Formosa, Formosa, AR (-26,201, -58,169)","2018","7","OBS643214727"
"451","Cacicus chrysopterus (Vigors, 1825)","-51.77953","-26.513438","Paraná","Palmas--Fazenda São Geraldo","2018","7","OBS638710471"
"452","Cacicus chrysopterus (Vigors, 1825)","-58.227788","-26.212203","Formosa","AR - Aeropuerto Formosa","2018","7","OBS643838061"
"453","Cacicus chrysopterus (Vigors, 1825)","-65.560449","-25.100134","Salta","Cielo Verde","2018","8","OBS654844359"
"454","Cacicus chrysopterus (Vigors, 1825)","-58.851039","-27.073265","Chaco","AR-Chaco - Laguna Patos -27,073x-58,851 - 19/03/2016 23:01","2018","8","OBS656589480"
"455","Cacicus chrysopterus (Vigors, 1825)","-50.843682","-29.269119","Rio Grande do Sul","Canela--Parque da Ferradura","2018","8","OBS647310104"
"456","Cacicus chrysopterus (Vigors, 1825)","-55.788958","-26.511977","Itapúa","Camino a Kanguery, Departamento de Itapúa, PY (-26,512, -55,789)","2018","8","OBS648832022"
"457","Cacicus chrysopterus (Vigors, 1825)","-49.260918","-25.362048","Paraná","Parque da Barreirinha","2018","8","OBS650167857"
"458","Cacicus chrysopterus (Vigors, 1825)","-57.375996","-22.712486","Concepción","Garay Cue","2018","8","OBS652864122"
"459","Cacicus chrysopterus (Vigors, 1825)","-60.253642","-28.538475","Santa Fe","Los Leones Ruta 31 INTIYACO","2018","8","OBS651965102"
"460","Cacicus chrysopterus (Vigors, 1825)","-49.712899","-25.470515","Paraná","São Luis do Purunã","2018","8","OBS648040431"
"461","Cacicus chrysopterus (Vigors, 1825)","-64.901492","-23.681079","Jujuy","Ruta Provincial 83, Jujuy, AR (-23.681, -64.901)","2018","8","OBS650382596"
"462","Cacicus chrysopterus (Vigors, 1825)","-49.266343","-25.356505","Paraná","Casa","2018","8","OBS646829069"
"463","Cacicus chrysopterus (Vigors, 1825)","-49.321237","-25.471853","Paraná","Minha Casa","2018","8","OBS645041117"
"464","Cacicus chrysopterus (Vigors, 1825)","-64.89871","-23.675883","Jujuy","Ruta Provincial 83, Jujuy, AR (-23,676, -64,899)","2018","8","OBS652687778"
"465","Cacicus chrysopterus (Vigors, 1825)","-55.766833","-26.516","Itapúa","Reserva Guyra Reta","2018","8","OBS648832652"
"466","Cacicus chrysopterus (Vigors, 1825)","-64.898995","-23.675762","Jujuy","Ruta Provincial 83, Jujuy, AR (-23,676, -64,899)","2018","8","OBS652681239"
"467","Cacicus chrysopterus (Vigors, 1825)","-52.069737","-29.291062","Rio Grande do Sul","Travesseiro--Estrada Herval","2018","8","OBS648200190"
"468","Cacicus chrysopterus (Vigors, 1825)","-57.804938","-22.152729","Concepción","Estancia 3 Hermanas - Apa","2018","8","OBS652950969"
"469","Cacicus chrysopterus (Vigors, 1825)","-65.334492","-24.509528","Salta","Camino de Cornisa","2018","8","OBS648180059"
"470","Cacicus chrysopterus (Vigors, 1825)","-60.180451","-28.903407","Santa Fe","Campo Defensa Garabato vera","2018","8","OBS649136881"
"471","Cacicus chrysopterus (Vigors, 1825)","-50.102634","-29.264575","Rio Grande do Sul","Trilha da Pedra Branca","2018","8","OBS646432429"
"472","Cacicus chrysopterus (Vigors, 1825)","-49.828196","-25.344744","Paraná","Santa Rita, Paraná, BR (-25,345, -49,828)","2018","8","OBS651823826"
"473","Cacicus chrysopterus (Vigors, 1825)","-64.898593","-23.67581","Jujuy","Ruta Provincial 83, Jujuy, AR (-23,676, -64,899)","2018","8","OBS652682473"
"474","Cacicus chrysopterus (Vigors, 1825)","-57.36","-22.68","Concepción","Estancia Garay cue S.A. (Concepción)","2018","8","OBS653083295"
"475","Cacicus chrysopterus (Vigors, 1825)","-50.592055","-29.308027","Rio Grande do Sul","Barragem Do Blang, Sao Francisco De Paula, Rio Grande do Sul, BR (-29,308, -50,592)","2018","8","OBS650636971"
"476","Cacicus chrysopterus (Vigors, 1825)","-58.666209","-25.371962","Formosa","Unnamed Road, Formosa, AR (-25,372, -58,666)","2018","8","OBS646270924"
"477","Cacicus chrysopterus (Vigors, 1825)","-52.745011","-28.619326","Rio Grande do Sul","Lucio Loesch,  Victor Graeff,  Rio Grande do Sul, BR (-28,619, -52,745)","2018","8","OBS644815053"
"478","Cacicus chrysopterus (Vigors, 1825)","-59.333118","-23.112497","Presidente Hayes","Estancia El Tejano","2018","8","OBS653077890"
"479","Cacicus chrysopterus (Vigors, 1825)","-65.311717","-24.165939","Jujuy","Doctor Gabriel Cunado, San Salvador de Jujuy, Jujuy, AR (-24,166, -65,312)","2018","8","OBS652681767"
"480","Cacicus chrysopterus (Vigors, 1825)","-52.258056","-31.705556","Rio Grande do Sul","Pelotas--Estrada do cotovelo (ambiente de mata, lagoa e banhado)","2018","8","OBS652617573"
"481","Cacicus chrysopterus (Vigors, 1825)","-51.536659","-29.234925","Rio Grande do Sul","Sítio Crescer,Garibaldi","2018","8","OBS657473146"
"482","Cacicus chrysopterus (Vigors, 1825)","-65.510273","-24.787464","Salta","Club de Campo La Aguada","2018","8","OBS650161718"
"483","Cacicus chrysopterus (Vigors, 1825)","-52.101307","-27.950513","Rio Grande do Sul","Edir Matei's lands - Sertão, Rio Grande do Sul, Brasil","2018","8","OBS652884480"
"484","Cacicus chrysopterus (Vigors, 1825)","-65.376863","-24.664165","Salta","Ruta A Gallinato Salta, AR (-24,664, -65,377)","2018","8","OBS647803390"
"485","Cacicus chrysopterus (Vigors, 1825)","-48.409459","-24.267839","São Paulo","PE Intervales--Park Guesthouse & vicinity","2018","8","OBS646588701"
"486","Cacicus chrysopterus (Vigors, 1825)","-45.536661","-22.583206","Minas Gerais","Trilha Pedra Da Nuvem Branca -- Piranguçu -- MG.","2018","8","OBS650470107"
"487","Cacicus chrysopterus (Vigors, 1825)","-58.708607","-27.043553","Chaco","La Leonesa (zona urbana)","2018","8","OBS650997800"
"488","Cacicus chrysopterus (Vigors, 1825)","-50.693797","-28.845081","Rio Grande do Sul","95400-000, São Francisco de Paula BR-RS (-28,8451,-50,6938)","2018","8","OBS646494065"
"489","Cacicus chrysopterus (Vigors, 1825)","-60.450489","-22.763677","Boquerón","Selva Serena","2018","8","OBS653122174"
"490","Cacicus chrysopterus (Vigors, 1825)","-57.472667","-22.261167","Concepción","Estancia Arrecife, Concepción","2018","8","OBS654214359"
"491","Cacicus chrysopterus (Vigors, 1825)","-60.049842","-22.201755","Boquerón","Estancia Iparoma","2018","8","OBS654412662"
"492","Cacicus chrysopterus (Vigors, 1825)","-53.897072","-26.556791","Misiones","Forestal Belga","2018","8","OBS653234909"
"493","Cacicus chrysopterus (Vigors, 1825)","-59.790061","-29.481122","Santa Fe","Romang Zona Rural Oeste","2018","8","OBS648477935"
"494","Cacicus chrysopterus (Vigors, 1825)","-58.982141","-27.389792","Chaco","Parque Norte Caraguatá","2018","8","OBS645959528"
"495","Cacicus chrysopterus (Vigors, 1825)","-46.338878","-23.761983","São Paulo","Campo Grande, Paranapiacaba","2018","8","OBS647196417"
"496","Cacicus chrysopterus (Vigors, 1825)","-45.397142","-22.629502","Minas Gerais","Estrada Charco/Campos Do Jordão -- Wenceslau Braz-- Mg.","2018","8","OBS655193451"
"497","Cacicus chrysopterus (Vigors, 1825)","-65.507874","-24.722442","Salta","Quebrada de San Lorenzo","2018","8","OBS650534332"
"498","Cacicus chrysopterus (Vigors, 1825)","-54.455452","-25.683303","Misiones","PN Iguazú Área Cataratas","2018","8","OBS652439378"
"499","Cacicus chrysopterus (Vigors, 1825)","-51.844104","-30.822369","Rio Grande do Sul","Camaquã--Barragem","2018","8","OBS652365191"
"500","Cacicus chrysopterus (Vigors, 1825)","-60.885505","-22.617926","Boquerón","Estancia Charlotte.Departamento de Boquerón, PY (-22.618, -60.886)","2018","8","OBS647728104"
"501","Cacicus chrysopterus (Vigors, 1825)","-56.53046","-27.526275","Corrientes","Bahía Carayá","2018","8","OBS649475270"
"502","Cacicus chrysopterus (Vigors, 1825)","-50.875912","-29.394484","Rio Grande do Sul","Canela--Lago Negro","2018","8","OBS647300913"
"503","Cacicus chrysopterus (Vigors, 1825)","-58.243557","-26.434055","Formosa","La T","2018","8","OBS648899746"
"504","Cacicus chrysopterus (Vigors, 1825)","-65.50363","-24.728403","Salta","Reserva ecológica de San Lorenzo","2018","8","OBS649971872"
"505","Cacicus chrysopterus (Vigors, 1825)","-58.628688","-25.37471","Formosa","campo de cato","2018","8","OBS646704315"
"506","Cacicus chrysopterus (Vigors, 1825)","-58.177847","-26.219891","Formosa","Laguna Oca","2018","8","OBS654164055"
"507","Cacicus chrysopterus (Vigors, 1825)","-61.97686","-25.671177","Santiago del Estero","El Guayacán (PNCopo), Santiago del Estero, AR (-25.671, -61.977)","2018","8","OBS649800318"
"508","Cacicus chrysopterus (Vigors, 1825)","-54.17035","-26.97328","Misiones","RNC Papel Misionero","2018","8","OBS646015858"
"509","Cacicus chrysopterus (Vigors, 1825)","-50.857252","-29.213658","Rio Grande do Sul","96330-000, Caxias do Sul BR-RS (-29,2137,-50,8573)","2018","8","OBS652873937"
"510","Cacicus chrysopterus (Vigors, 1825)","-54.1815","-27.00422","Misiones","RNC Papel Misionero","2018","8","OBS649959589"
"511","Cacicus chrysopterus (Vigors, 1825)","-58.949804","-27.430518","Chaco","mi casa","2018","8","OBS647631862"
"512","Cacicus chrysopterus (Vigors, 1825)","-58.199874","-26.235406","Formosa","Laguna Oca","2018","8","OBS649151021"
"513","Cacicus chrysopterus (Vigors, 1825)","-65.403272","-24.682443","Salta","Nueva Casa De Lalala","2018","8","OBS649583785"
"514","Cacicus chrysopterus (Vigors, 1825)","-58.228376","-26.205293","Formosa","Formosa","2018","8","OBS651714962"
"515","Cacicus chrysopterus (Vigors, 1825)","-65.3","-24.683333","Salta","Quebrada del Gallinato","2018","8","OBS649422753"
"516","Cacicus chrysopterus (Vigors, 1825)","-59.07431","-28.129735","Santa Fe","Puerto Piracua","2018","8","OBS649580813"
"517","Cacicus chrysopterus (Vigors, 1825)","-61.202263","-27.201539","Chaco","El Cruce-Charata.","2018","8","OBS645409691"
"518","Cacicus chrysopterus (Vigors, 1825)","-52.208098","-27.564126","Rio Grande do Sul","Três Arroios--Pesqueiro Boff","2018","8","OBS646113956"
"519","Cacicus chrysopterus (Vigors, 1825)","-65.225592","-24.81534","Salta","Finca La Montaña - (-24,815, -65,226)","2018","8","OBS648905210"
"520","Cacicus chrysopterus (Vigors, 1825)","-55.788896","-26.511976","Itapúa","Camino a Kanguery, Departamento de Itapúa, PY (-26,512, -55,789)","2018","8","OBS648835318"
"521","Cacicus chrysopterus (Vigors, 1825)","-58.628864","-25.374868","Formosa","campo de cato","2018","8","OBS646704381"
"522","Cacicus chrysopterus (Vigors, 1825)","-60.692603","-24.237737","Formosa","Unnamed Road, Formosa, AR (-24,238, -60,693)","2018","8","OBS645230513"
"523","Cacicus chrysopterus (Vigors, 1825)","-45.282766","-22.558087","Minas Gerais","Serra Bonita -- Delfim Moreira--MG.","2018","8","OBS659537135"
"524","Cacicus chrysopterus (Vigors, 1825)","-47.077328","-22.863498","São Paulo","Tapiraí","2018","8","OBS650361544"
"525","Cacicus chrysopterus (Vigors, 1825)","-47.993072","-24.057071","São Paulo","PE Carlos Botelho--Núcleo São Miguel Arcanjo (sede)","2018","9","OBS658804934"
"526","Cacicus chrysopterus (Vigors, 1825)","-64.898955","-23.675962","Jujuy","Ruta Provincial 83, Jujuy, AR (-23,676, -64,899)","2018","9","OBS654075792"
"527","Cacicus chrysopterus (Vigors, 1825)","-54.186654","-26.976001","Misiones","(-26,9760,-54,1867) seguimiento 6","2018","9","OBS658871685"
"528","Cacicus chrysopterus (Vigors, 1825)","-49.692698","-27.941553","Santa Catarina","Localidade Desconhecida - (-27,942, -49,693)","2018","9","OBS656051588"
"529","Cacicus chrysopterus (Vigors, 1825)","-65.452659","-24.121708","Jujuy","Río Yala (AICA JU23)","2018","9","OBS661639139"
"530","Cacicus chrysopterus (Vigors, 1825)","-54.175324","-26.980806","Misiones","(-26,9808,-54,1753) caminata-lluvia","2018","9","OBS658398872"
"531","Cacicus chrysopterus (Vigors, 1825)","-46.340158","-23.763911","São Paulo","Santo André--Campo Grande e estrada do Rio Claro","2018","9","OBS653774246"
"532","Cacicus chrysopterus (Vigors, 1825)","-58.59672","-27.340922","Corrientes","(-27.341, -58.597)","2018","9","OBS654986172"
"533","Cacicus chrysopterus (Vigors, 1825)","-48.8279","-25.480672","Paraná","Morretes--área geral","2018","9","OBS653467901"
"534","Cacicus chrysopterus (Vigors, 1825)","-65.403555","-24.315489","Jujuy","Entrada a Los Morados","2018","9","OBS653227637"
"535","Cacicus chrysopterus (Vigors, 1825)","-60.024343","-22.743958","Boquerón","boqueron, PY (-22.744, -60.024)","2018","9","OBS660248485"
"536","Cacicus chrysopterus (Vigors, 1825)","-46.465132","-23.850883","São Paulo","PE Serra do Mar--Núcleo Itutinga-Pilões","2018","9","OBS659028252"
"537","Cacicus chrysopterus (Vigors, 1825)","-55.704331","-27.460834","Misiones","Ea. Santa Cecilia","2018","9","OBS657474106"
"538","Cacicus chrysopterus (Vigors, 1825)","-54.186463","-26.971113","Misiones","(-26,9711,-54,1865) seguimiento 4","2018","9","OBS656181885"
"539","Cacicus chrysopterus (Vigors, 1825)","-56.78318","-27.419776","Misiones","Isla Yacyretá","2018","9","OBS655531965"
"540","Cacicus chrysopterus (Vigors, 1825)","-56.615379","-20.085772","Mato Grosso do Sul","Miranda -- Fazenda San Francisco","2018","9","OBS660129084"
"541","Cacicus chrysopterus (Vigors, 1825)","-45.14774","-22.509244","São Paulo","Trilha Da Base Marins Para Morro Do Careca -- Marmelópolis -- Mg.","2018","9","OBS665492784"
"542","Cacicus chrysopterus (Vigors, 1825)","-45.889313","-22.695437","Minas Gerais","Gonçalves--Pousada Bicho do Mato","2018","9","OBS659732465"
"543","Cacicus chrysopterus (Vigors, 1825)","-48.4073","-24.2601",NA,"PE Intervales, Ribeirao Grande, São Paulo","2018","9","435672@XC"
"544","Cacicus chrysopterus (Vigors, 1825)","-44.592346","-22.462509","Rio de Janeiro","Parque Nacional do Itatiaia - parte baixa.","2018","9","OBS655725372"
"545","Cacicus chrysopterus (Vigors, 1825)","-45.969522","-22.878271","São Paulo","São Francisco Xavier--Serra dos Poncianos e trilhas","2018","9","OBS656164511"
"546","Cacicus chrysopterus (Vigors, 1825)","-49.142459","-25.624572","Paraná","São Marcos, São José dos Pinhais","2018","9","OBS659160679"
"547","Cacicus chrysopterus (Vigors, 1825)","-46.038766","-22.863364","Minas Gerais","Monte Verde--área geral","2018","9","OBS662143581"
"548","Cacicus chrysopterus (Vigors, 1825)","-59.515206","-28.159669","Santa Fe","Campo Privado GRISMALDI - Villa Guillermina","2018","9","OBS679025661"
"549","Cacicus chrysopterus (Vigors, 1825)","-52.550397","-28.499245","Rio Grande do Sul","Condomínio Reserva do Lago","2018","9","OBS658970142"
"550","Cacicus chrysopterus (Vigors, 1825)","-64.95291","-23.622114","Jujuy","San Francisco","2018","9","OBS660393965"
"551","Cacicus chrysopterus (Vigors, 1825)","-45.686039","-22.887503","São Paulo","Hotel Harmonia","2018","9","OBS659528030"
"552","Cacicus chrysopterus (Vigors, 1825)","-51.93439","-29.33774","Rio Grande do Sul","Morro Gaúcho","2018","9","OBS659551166"
"553","Cacicus chrysopterus (Vigors, 1825)","-49.883439","-25.549421","Paraná","Porto Amazonas","2018","9","OBS661428582"
"554","Cacicus chrysopterus (Vigors, 1825)","-58.623119","-20.017807","Alto Paraguay","km 55 - Bahía Negra","2018","9","OBS661137929"
"555","Cacicus chrysopterus (Vigors, 1825)","-65.303031","-24.745217","Salta","Camino entre la Lagunilla y el Mojotoro","2018","9","OBS655184049"
"556","Cacicus chrysopterus (Vigors, 1825)","-58.192398","-26.167779","Formosa","Casa","2018","9","OBS653475531"
"557","Cacicus chrysopterus (Vigors, 1825)","-58.870733","-27.139622","Chaco","Puente Nacional Río Guaycuru","2018","9","OBS656589888"
"558","Cacicus chrysopterus (Vigors, 1825)","-58.308327","-26.480667","Formosa","Avenida Independencia, Formosa, AR (-26.481, -58.308)","2018","9","OBS661614435"
"559","Cacicus chrysopterus (Vigors, 1825)","-45.133856","-22.500172","Minas Gerais","Pico Dos Marins -- Marmelópolis--MG","2018","9","OBS655191527"
"560","Cacicus chrysopterus (Vigors, 1825)","-49.820782","-25.423031","Paraná","Colônia Witmarsum, Palmeira, Paraná, BR (-25,423, -49,821)","2018","9","OBS661770456"
"561","Cacicus chrysopterus (Vigors, 1825)","-45.145942","-23.33649","São Paulo","(-23.3365,-45.1459)","2018","9","OBS659473369"
"562","Cacicus chrysopterus (Vigors, 1825)","-64.415124","-24.290625","Jujuy","Monte Redondo. El Fuerte.","2018","9","OBS663112608"
"563","Cacicus chrysopterus (Vigors, 1825)","-56.824851","-27.403014","Misiones","Yacyreta Humid Forest","2018","9","OBS676253037"
"564","Cacicus chrysopterus (Vigors, 1825)","-57.160268","-24.35541","San Pedro","Calle Cardinal 1a, San Pedro, PY (-24,355, -57,16)","2018","9","OBS655250515"
"565","Cacicus chrysopterus (Vigors, 1825)","-65.330101","-24.503315","Salta","Camino de Cornisa","2018","9","OBS661839712"
"566","Cacicus chrysopterus (Vigors, 1825)","-49.952393","-29.197588","Santa Catarina","Praia Grande (SC)--área geral","2018","9","OBS656286874"
"567","Cacicus chrysopterus (Vigors, 1825)","-45.145959","-23.336504","São Paulo","Rodovia Osvaldo Cruz, São Paulo, BR (-23.337, -45.146)","2018","9","OBS659513278"
"568","Cacicus chrysopterus (Vigors, 1825)","-56.167872","-21.475608","Mato Grosso do Sul","Quintal do Rooswelt (-21,476, -56,168)","2018","9","OBS656830908"
"569","Cacicus chrysopterus (Vigors, 1825)","-52.83627","-28.464478","Rio Grande do Sul","Bairro Alfredo Alzirio Roos, Nmt Rio Grande do Sul, BR (-28,464, -52,836)","2018","9","OBS658220789"
"570","Cacicus chrysopterus (Vigors, 1825)","-52.703154","-28.460316","Rio Grande do Sul","Fazenda Tedesco","2018","9","OBS654961076"
"571","Cacicus chrysopterus (Vigors, 1825)","-56.165993","-20.067414","Mato Grosso do Sul","Estancia Caimen","2018","9","OBS663101990"
"572","Cacicus chrysopterus (Vigors, 1825)","-55.583107","-27.444906","Misiones","Cruz de Santa Ana","2018","9","OBS655331984"
"573","Cacicus chrysopterus (Vigors, 1825)","-54.186364","-26.971107","Misiones","(-26,9711,-54,1864) escucha 3","2018","9","OBS657731816"
"574","Cacicus chrysopterus (Vigors, 1825)","-47.0037","-24.0037",NA,"Trilha dos Tucanos, Tapirai, São Paulo","2018","9","435679@XC"
"575","Cacicus chrysopterus (Vigors, 1825)","-49.15334","-25.663442","Paraná","168 Rua Antônio Greboge, São José dos Pinhais, Paraná, BR (-25,663, -49,153)","2018","9","OBS654884393"
"576","Cacicus chrysopterus (Vigors, 1825)","-45.642","-22.6797","São Paulo","São Bento do Sapucaí--Estrada do Baúzinho","2018","9","OBS659947524"
"577","Cacicus chrysopterus (Vigors, 1825)","-48.913552","-25.337227","Paraná","Estrada do Corvo","2018","9","OBS657334500"
"578","Cacicus chrysopterus (Vigors, 1825)","-44.82121","-23.151322","Rio de Janeiro","Estrada Da Pedra Da Macela, Rio de Janeiro, BR (-23,151, -44,821)","2018","9","OBS659130933"
"579","Cacicus chrysopterus (Vigors, 1825)","-51.411753","-29.284864","Rio Grande do Sul","Farroupilha--Salto Ventoso","2018","9","OBS655619735"
"580","Cacicus chrysopterus (Vigors, 1825)","-53.403532","-28.733595","Rio Grande do Sul","Cruz Alta--Capão da Atafona","2018","9","OBS658928142"
"581","Cacicus chrysopterus (Vigors, 1825)","-56.74","-27.4","Misiones","Yacyreta, Itapúa (Ñeembucú)","2018","9","OBS656253923"
"582","Cacicus chrysopterus (Vigors, 1825)","-44.525403","-22.350181","Rio de Janeiro","Parque Estadual da Pedra Selada","2018","10","OBS665006533"
"583","Cacicus chrysopterus (Vigors, 1825)","-52.696447","-28.462026","Rio Grande do Sul","Fazenda Tedesco Sto Antônio Do Planalto (-28,462, -52,696)","2018","10","OBS663894034"
"584","Cacicus chrysopterus (Vigors, 1825)","-44.823014","-23.163531","Rio de Janeiro","Porteira Macela PARATY RJ","2018","10","OBS664248994"
"585","Cacicus chrysopterus (Vigors, 1825)","-59.245856","-33.652152","Entre Ríos","Campo privado a unos 10 km de Ibicuy","2018","10","OBS684650513"
"586","Cacicus chrysopterus (Vigors, 1825)","-65.23002","-24.810963","Salta","(-24,811, -65,23)","2018","10","OBS664471477"
"587","Cacicus chrysopterus (Vigors, 1825)","-65.333799","-24.551868","Salta","Loma de Los Nogales","2018","10","OBS666741850"
"588","Cacicus chrysopterus (Vigors, 1825)","-47.980835","-24.046224","São Paulo","Sao Miguel Arcanjo, São Paulo, BR (-24,046, -47,981)","2018","10","OBS663686916"
"589","Cacicus chrysopterus (Vigors, 1825)","-57.503476","-24.964047","Presidente Hayes","La Rafaela , Presidente Hayes, PY (-24,964, -57,503)","2018","10","OBS676783856"
"590","Cacicus chrysopterus (Vigors, 1825)","-59.233605","-27.258265","Chaco","Unnamed Road, Laguna Blanca, Chaco, AR (-27,258, -59,234)","2018","10","OBS672148686"
"591","Cacicus chrysopterus (Vigors, 1825)","-57.53262","-25.454023","Central","Camino Ypane - Villeta, Ypané, Tetãvore Central, PY (-25,454, -57,533)","2018","10","OBS669207685"
"592","Cacicus chrysopterus (Vigors, 1825)","-65.336251","-26.785997","Tucumán","Sendero Funicular","2018","10","OBS663627658"
"593","Cacicus chrysopterus (Vigors, 1825)","-58.643249","-30.45336","Entre Ríos","Unnamed Road, Entre Ríos, AR (-32.224, -60.513)","2018","10","OBS664196122"
"594","Cacicus chrysopterus (Vigors, 1825)","-48.40595","-24.16468","São Paulo","PE Intervales--Estrada de acesso","2018","10","OBS670702607"
"595","Cacicus chrysopterus (Vigors, 1825)","-65.464606","-24.120992","Jujuy","Ruta Provincial 4, Jujuy (-24.121, -65.465)","2018","10","OBS670289818"
"596","Cacicus chrysopterus (Vigors, 1825)","-45.755","-23.526419","São Paulo","Casarão do Café","2018","10","OBS666800556"
"597","Cacicus chrysopterus (Vigors, 1825)","-47.993735","-24.055789","São Paulo","Parque Estadual Carlos Botelho","2018","10","OBS668588706"
"598","Cacicus chrysopterus (Vigors, 1825)","-58.166861","-28.060256","Corrientes","PN Mburucuya","2018","10","OBS671540242"
"599","Cacicus chrysopterus (Vigors, 1825)","-65.329702","-24.163305","Jujuy","Los Perales","2018","10","OBS665244125"
"600","Cacicus chrysopterus (Vigors, 1825)","-59.647731","-30.762373","Entre Ríos","Parque de la Aventura (La Paz)","2018","10","OBS671043326"
"601","Cacicus chrysopterus (Vigors, 1825)","-59.067118","-27.354779","Chaco","Unitan, Chaco, AR (-27,355, -59,067)","2018","10","OBS665855697"
"602","Cacicus chrysopterus (Vigors, 1825)","-61.105349","-25.154294","Chaco","Paraje La Armonia","2018","10","OBS665016544"
"603","Cacicus chrysopterus (Vigors, 1825)","-50.591203","-25.435904","Paraná","Fernandes Pinheiro, Paraná, BR","2018","10","OBS671483404"
"604","Cacicus chrysopterus (Vigors, 1825)","-65.307158","-24.765553","Salta","Lagunilla - 24,766x-65,307 - 22/7/2017 8:03 AM","2018","10","OBS684996140"
"605","Cacicus chrysopterus (Vigors, 1825)","-45.765793","-23.620351","São Paulo","BR-SP-Salesópolis (-23,6204,-45,7658)","2018","10","OBS664668992"
"606","Cacicus chrysopterus (Vigors, 1825)","-56.150155","-21.448395","Mato Grosso do Sul","Jardim--Cemitério dos Heróis","2018","10","OBS663995967"
"607","Cacicus chrysopterus (Vigors, 1825)","-58.552069","-20.30395","Alto Paraguay","Salmo 91 (ex Cardozo), Alto Paraguay","2018","10","OBS664203189"
"608","Cacicus chrysopterus (Vigors, 1825)","-44.703861","-22.372892","Rio de Janeiro","Rodovia Sebastião Alves do Nascimento, Rio de Janeiro, BR (-22.373, -44.704)","2018","10","OBS662833870"
"609","Cacicus chrysopterus (Vigors, 1825)","-48.944991","-25.302797","Paraná","100 Rodovia Régis Bittencourt, Paraná, BR (-25,303, -48,945)","2018","10","OBS667226215"
"610","Cacicus chrysopterus (Vigors, 1825)","-58.560003","-27.315698","Corrientes","Paso de la Patria, Corrientes","2018","10","OBS666588421"
"611","Cacicus chrysopterus (Vigors, 1825)","-55.007987","-27.406276","Misiones","Chacra Mariposa","2018","10","OBS664836320"
"612","Cacicus chrysopterus (Vigors, 1825)","-45.137046","-23.347392","São Paulo","(-23.3474,-45.1370)","2018","10","OBS671745271"
"613","Cacicus chrysopterus (Vigors, 1825)","-64.36548","-23.563143","Jujuy","Ruta Provincial 37, El Talar, Jujuy, AR (-23,563, -64,365)","2018","10","OBS668668184"
"614","Cacicus chrysopterus (Vigors, 1825)","-44.8315","-23.151302","São Paulo","(-23,1513,-44,8315)","2018","10","OBS663910694"
"615","Cacicus chrysopterus (Vigors, 1825)","-59.606705","-26.808447","Chaco","Parque Nacional Chaco, AR (-26,808, -59,607)","2018","10","OBS670869769"
"616","Cacicus chrysopterus (Vigors, 1825)","-65.498135","-24.726219","Salta","Hotel Selva Montana","2018","10","OBS672534418"
"617","Cacicus chrysopterus (Vigors, 1825)","-58.23285","-26.282812","Formosa","Camino a Tres Marías","2018","10","OBS664237824"
"618","Cacicus chrysopterus (Vigors, 1825)","-48.410363","-24.267018","São Paulo",NA,"2018","10","17998835"
"619","Cacicus chrysopterus (Vigors, 1825)","-60.751972","-26.713836","Chaco","Las Curiosas (-26.714, -60.752)","2018","10","OBS664410288"
"620","Cacicus chrysopterus (Vigors, 1825)","-45.200569","-23.289449","São Paulo","Unnamed Road, São Paulo, BR (-23.289, -45.201)","2018","10","OBS667443381"
"621","Cacicus chrysopterus (Vigors, 1825)","-57.206715","-28.555701","Corrientes","Ruta Provincial 40, Mercedes AR-Corrientes (-28,5557,-57,2067)","2018","10","OBS671712892"
"622","Cacicus chrysopterus (Vigors, 1825)","-45.164696","-23.319193","São Paulo","Reserva Guainumbi","2018","10","OBS675233653"
"623","Cacicus chrysopterus (Vigors, 1825)","-58.984259","-27.457939","Chaco","570 Obligado, Resistencia, Chaco, AR (-27,458, -58,984)","2018","10","OBS665263949"
"624","Cacicus chrysopterus (Vigors, 1825)","-64.231198","-23.124708","Salta","Chancho Frito","2018","10","OBS667544265"
"625","Cacicus chrysopterus (Vigors, 1825)","-65.249863","-24.450197","Jujuy","Perilago Dique Las Maderas","2018","10","OBS676579506"
"626","Cacicus chrysopterus (Vigors, 1825)","-54.58482","-25.830025","Misiones","Reserva Salto Jasy","2018","10","OBS672324016"
"627","Cacicus chrysopterus (Vigors, 1825)","-64.857893","-27.504844","Santiago del Estero","RIO DULCE","2018","10","OBS666956409"
"628","Cacicus chrysopterus (Vigors, 1825)","-65.384929","-24.768299","Salta","Tres Cerritos","2018","10","OBS663321663"
"629","Cacicus chrysopterus (Vigors, 1825)","-48.413287","-24.265812","São Paulo","(-24.2658,-48.4133)","2018","10","OBS669718528"
"630","Cacicus chrysopterus (Vigors, 1825)","-64.399096","-24.099605","Jujuy","San Rafael, Jujuy, AR (-24.1, -64.399)","2018","10","OBS667569616"
"631","Cacicus chrysopterus (Vigors, 1825)","-49.097407","-26.224716","Santa Catarina","Estrada do Rio do Julio","2018","10","OBS664656639"
"632","Cacicus chrysopterus (Vigors, 1825)","-64.790851","-23.811567","Jujuy","Barrio Arrieta","2018","10","OBS664123294"
"633","Cacicus chrysopterus (Vigors, 1825)","-58.970667","-26.16666","Formosa","Paraje La Esperanza","2018","10","OBS669023236"
"634","Cacicus chrysopterus (Vigors, 1825)","-58.177049","-26.21615","Formosa","Camino a Laguna Oca","2018","10","OBS669260294"
"635","Cacicus chrysopterus (Vigors, 1825)","-58.597377","-27.24439","Chaco","camino desde el puerto de las palmas a la isla del cerrito","2018","10","OBS669631193"
"636","Cacicus chrysopterus (Vigors, 1825)","-64.937111","-23.649008","Jujuy","Rio Jordan","2018","10","OBS691276299"
"637","Cacicus chrysopterus (Vigors, 1825)","-59.938666","-26.04303","Chaco","Pampa del Indio, Chaco, AR (-26.043, -59.939)","2018","10","OBS672140587"
"638","Cacicus chrysopterus (Vigors, 1825)","-57.187614","-27.710317","Corrientes","Ea. San Juan Poriahú (AICA CR02)","2018","10","OBS664418894"
"639","Cacicus chrysopterus (Vigors, 1825)","-65.464917","-24.12126","Jujuy",NA,"2018","10","18401827"
"640","Cacicus chrysopterus (Vigors, 1825)","-59.558183","-22.823747","Presidente Hayes","Presidente Hayes, PY (-22.824, -59.558)","2018","10","OBS671436632"
"641","Cacicus chrysopterus (Vigors, 1825)","-55.665333","-27.416","Misiones","Campo San Juan (AICA MI20)","2018","10","OBS664131611"
"642","Cacicus chrysopterus (Vigors, 1825)","-55.513995","-27.332848","Misiones","Ruinas de Loreto","2018","10","OBS664558958"
"643","Cacicus chrysopterus (Vigors, 1825)","-54.168803","-25.857685","Misiones","Ruta Provincial 19, Misiónes, AR (-25,858, -54,169)","2018","10","OBS664047347"
"644","Cacicus chrysopterus (Vigors, 1825)","-44.73429","-22.355908","Minas Gerais","(-22.3559,-44.7343) Araucaria Tit-Spinetail spot down hill from the Itatiaia NP checkpoint station","2018","10","OBS698889816"
"645","Cacicus chrysopterus (Vigors, 1825)","-48.409853","-24.26725","São Paulo",NA,"2018","10","18079490"
"646","Cacicus chrysopterus (Vigors, 1825)","-48.419998","-24.18436","São Paulo","(-24.1844,-48.4200)","2018","10","OBS669980935"
"647","Cacicus chrysopterus (Vigors, 1825)","-52.177104","-30.46964","Rio Grande do Sul","(-30,4696,-52,1771)","2018","10","OBS669594139"
"648","Cacicus chrysopterus (Vigors, 1825)","-49.80551","-25.460286","Paraná","RPPN Papagaios Velhos, Palmeira, Paraná, BR (-25,423, -49,821)","2018","10","OBS666600312"
"649","Cacicus chrysopterus (Vigors, 1825)","-65.417719","-24.790538","Salta","Argentina salta...palomitas ruta 34","2018","11","OBS695290171"
"650","Cacicus chrysopterus (Vigors, 1825)","-45.88162","-22.733114","Minas Gerais","Sítio Esperança-Juncal- (-22,733, -45,882)","2018","11","OBS683713794"
"651","Cacicus chrysopterus (Vigors, 1825)","-61.811504","-24.316388","Formosa","AR-Formosa-Bermejo (-24,3164,-61,8115)","2018","11","OBS676559846"
"652","Cacicus chrysopterus (Vigors, 1825)","-56.051892","-28.110957","Corrientes","Establecimiento Las Marias","2018","11","OBS679353255"
"653","Cacicus chrysopterus (Vigors, 1825)","-58.894401","-30.294609","Entre Ríos","Reserva de Aves Chilcalito","2018","11","OBS676364393"
"654","Cacicus chrysopterus (Vigors, 1825)","-61.812619","-24.311404","Formosa","Ruta Provincial 9, Formosa, AR (-24,311, -61,813)","2018","11","OBS676562739"
"655","Cacicus chrysopterus (Vigors, 1825)","-65.380903","-24.762383","Salta","Cerro de la Virgen","2018","11","OBS673891205"
"656","Cacicus chrysopterus (Vigors, 1825)","-48.38344","-24.24422","São Paulo","Ribeirão Grande--Paraíso Eco Lodge","2018","11","OBS677779317"
"657","Cacicus chrysopterus (Vigors, 1825)","-61.812688","-24.312249","Formosa","(-24,312, -61,813)","2018","11","OBS676382181"
"658","Cacicus chrysopterus (Vigors, 1825)","-46.477243","-23.818999","São Paulo","Rodovia Caminho do Mar","2018","11","OBS675419709"
"659","Cacicus chrysopterus (Vigors, 1825)","-58.8022","-29.2583","Corrientes","Arroyo Batel","2018","11","OBS678538337"
"660","Cacicus chrysopterus (Vigors, 1825)","-46.468709","-23.849475","São Paulo","Rodovia Caminho do Mar, São Bernardo do Campo, São Paulo, BR (-23,849, -46,469)","2018","11","OBS675424575"
"661","Cacicus chrysopterus (Vigors, 1825)","-63.974188","-18.350573","Santa Cruz","Laguna Esmeralda (-18.3506,-63.9742)","2018","11","OBS675694425"
"662","Cacicus chrysopterus (Vigors, 1825)","-48.644558","-24.400334","São Paulo","Estrada do Caboclos, Apiaí","2018","11","OBS681542141"
"663","Cacicus chrysopterus (Vigors, 1825)","-46.622978","-23.421334","São Paulo","PE da Cantareira--Nucleo Águas Claras","2018","11","OBS673020085"
"664","Cacicus chrysopterus (Vigors, 1825)","-52.81737","-27.913535","Rio Grande do Sul","Parque Estadual do Papagaio Charão Sarandi RS","2018","11","OBS676932260"
"665","Cacicus chrysopterus (Vigors, 1825)","-50.650941","-25.470922","Paraná","Irati--área geral","2018","11","OBS678362084"
"666","Cacicus chrysopterus (Vigors, 1825)","-64.535402","-23.711682","Jujuy","Ruta Provincial 1, Jujuy, AR (-23,712, -64,535)","2018","11","OBS676572461"
"667","Cacicus chrysopterus (Vigors, 1825)","-48.402396","-22.962699","São Paulo","São Paulo, BR (-22,963, -48,402)","2018","11","OBS678994505"
"668","Cacicus chrysopterus (Vigors, 1825)","-64.900972","-23.561725","Jujuy","Alto Calilegua (AICA-JU01)","2018","11","OBS681545398"
"669","Cacicus chrysopterus (Vigors, 1825)","-58.164839","-25.984821","Formosa","Guaycolek","2018","11","OBS674403585"
"670","Cacicus chrysopterus (Vigors, 1825)","-65.480419","-24.631385","Salta","(-24,6314,-65,4804)","2018","11","OBS674697110"
"671","Cacicus chrysopterus (Vigors, 1825)","-50.281","-29.58","Rio Grande do Sul","Maquiné, RS, barra do ouro","2018","11","OBS674736496"
"672","Cacicus chrysopterus (Vigors, 1825)","-64.962554","-23.600737","Jujuy","(-23,6007,-64,9626)","2018","11","OBS676563856"
"673","Cacicus chrysopterus (Vigors, 1825)","-50.91381","-28.666336","Rio Grande do Sul","(-28,6663,-50,9138)","2018","11","OBS678024841"
"674","Cacicus chrysopterus (Vigors, 1825)","-48.460841","-24.227466","São Paulo","(-24,2275,-48,4608)","2018","11","OBS672461020"
"675","Cacicus chrysopterus (Vigors, 1825)","-64.901356","-23.68135","Jujuy","Ruta Provincial 83, Jujuy, AR (-23,681, -64,901)","2018","11","OBS688337598"
"676","Cacicus chrysopterus (Vigors, 1825)","-49.66051","-25.473419","Paraná","Balsa Nova--Estrada do Tamanduá","2018","11","OBS675782994"
"677","Cacicus chrysopterus (Vigors, 1825)","-56.057289","-28.108591","Corrientes","Reserva Natural Establecimiento Las Marías","2018","11","OBS680723959"
"678","Cacicus chrysopterus (Vigors, 1825)","-48.47011","-24.223529","São Paulo","(-24,2235,-48,4701)","2018","11","OBS672297991"
"679","Cacicus chrysopterus (Vigors, 1825)","-65.48327","-24.629502","Salta","Lesser","2018","11","OBS675435374"
"680","Cacicus chrysopterus (Vigors, 1825)","-64.899159","-23.679601","Jujuy","Ruta Provincial 83, Jujuy, AR (-23,68, -64,899)","2018","11","OBS679162988"
"681","Cacicus chrysopterus (Vigors, 1825)","-59.596997","-26.810745","Chaco","Unnamed Road, Chaco, AR (-26.811, -59.597)","2018","11","OBS674760111"
"682","Cacicus chrysopterus (Vigors, 1825)","-60.148953","-24.499473","Formosa","Establecimiento Santa Catalina","2018","11","OBS677227938"
"683","Cacicus chrysopterus (Vigors, 1825)","-60.170518","-24.415504","Formosa","Establecimiento Guanacari","2018","11","OBS677225164"
"684","Cacicus chrysopterus (Vigors, 1825)","-48.415317","-24.273064","São Paulo",NA,"2018","11","18216713"
"685","Cacicus chrysopterus (Vigors, 1825)","-45.145929","-23.335638","São Paulo","Parque Estadual da Serra do Mar - Núcleo Sta Virgínia/Pousada Oikos.","2018","11","OBS674330284"
"686","Cacicus chrysopterus (Vigors, 1825)","-44.756255","-22.373465","Minas Gerais","(-22.3735,-44.7563)","2018","11","OBS672638663"
"687","Cacicus chrysopterus (Vigors, 1825)","-65.483926","-24.645624","Salta","Lesser","2018","11","OBS678513543"
"688","Cacicus chrysopterus (Vigors, 1825)","-46.499691","-23.812879","São Paulo","Borda da Represa Billings","2018","11","OBS675410633"
"689","Cacicus chrysopterus (Vigors, 1825)","-60.750597","-26.713634","Chaco","Las Curiosas","2018","11","OBS691433654"
"690","Cacicus chrysopterus (Vigors, 1825)","-48.450408","-24.219326","São Paulo","(-24,2193,-48,4504)","2018","11","OBS673155518"
"691","Cacicus chrysopterus (Vigors, 1825)","-57.558477","-25.481061","Central","Camino Ypane - Villeta, Departamento Central, PY (-25,481, -57,558)","2018","11","OBS672477661"
"692","Cacicus chrysopterus (Vigors, 1825)","-64.76979","-23.774741","Jujuy","Calilegua","2018","11","OBS688038352"
"693","Cacicus chrysopterus (Vigors, 1825)","-59.597343","-26.810723","Chaco","Unnamed Road, Chaco, AR (-26.811, -59.597)","2018","11","OBS674354358"
"694","Cacicus chrysopterus (Vigors, 1825)","-55.160807","-27.490747","Misiones","(-27.491, -55.161) Oberá","2018","11","OBS688782516"
"695","Cacicus chrysopterus (Vigors, 1825)","-60.814747","-24.103903","Formosa","El Churcalito","2018","11","OBS677238167"
"696","Cacicus chrysopterus (Vigors, 1825)","-64.898213","-23.678222","Jujuy","Ruta Provincial 83, Jujuy, AR (-23,678, -64,898)","2018","11","OBS679160688"
"697","Cacicus chrysopterus (Vigors, 1825)","-65.230242","-24.807108","Salta","Localidad desconocida - (-24,807, -65,23)","2018","12","OBS690310489"
"698","Cacicus chrysopterus (Vigors, 1825)","-44.751598","-22.372346","Minas Gerais","Estrada Parque Itamonte","2018","12","OBS690598110"
"699","Cacicus chrysopterus (Vigors, 1825)","-52.598487","-28.310827","Rio Grande do Sul","Fazenda Aparecida,  SAP, Rio Grande do Sul, BR (-28,311, -52,598)","2018","12","OBS688444909"
"700","Cacicus chrysopterus (Vigors, 1825)","-48.417786","-24.276238","São Paulo","PE Intervales—Estrada Carmo","2018","12","OBS691517774"
"701","Cacicus chrysopterus (Vigors, 1825)","-58.7017","-26.22227","Formosa","Cnia. Rincón Ñandú","2018","12","OBS688207481"
"702","Cacicus chrysopterus (Vigors, 1825)","-45.866096","-22.886119","São Paulo","São Francisco Xavier--Estrada do Rio Manso","2018","12","OBS686794441"
"703","Cacicus chrysopterus (Vigors, 1825)","-46.88054","-23.580821","São Paulo","Cotia--Condomínio São Paulo II","2018","12","OBS690329400"
"704","Cacicus chrysopterus (Vigors, 1825)","-60.680913","-17.909137","Santa Cruz","Taturuqui","2018","12","OBS689643381"
"705","Cacicus chrysopterus (Vigors, 1825)","-52.556638","-31.657743","Rio Grande do Sul","Pelotas--Santa Rita","2018","12","OBS683913534"
"706","Cacicus chrysopterus (Vigors, 1825)","-46.959435","-23.66023","São Paulo","(-23,66, -46,959)","2018","12","OBS696219782"
"707","Cacicus chrysopterus (Vigors, 1825)","-65.417882","-24.790351","Salta","Chicoana finca cielo verde","2018","12","OBS695397208"
