"","name","longitude","latitude","state","locality","year","month","identifier"
"1","Dysithamnus xanthopterus Burmeister, 1856","-48.829","-25.49",NA,"Sede Ornithos, Morretes, Paraná","2019","4","469395@XC"
"2","Dysithamnus xanthopterus Burmeister, 1856","-45.129048","-23.22996","São Paulo","Sítio Cotinga","2018","1","OBS702318525"
"3","Dysithamnus xanthopterus Burmeister, 1856","-45.163913","-23.319735","São Paulo","Pousada Oikos (Josiél Briet)","2018","1","OBS573201657"
"4","Dysithamnus xanthopterus Burmeister, 1856","-48.409262","-24.267632","São Paulo","Unknown Location - (-24.268, -48.409)","2018","1","OBS573119729"
"5","Dysithamnus xanthopterus Burmeister, 1856","-43.000059","-22.471875","Rio de Janeiro","PN Serra dos Orgaos","2018","1","OBS566690928"
"6","Dysithamnus xanthopterus Burmeister, 1856","-44.756815","-22.373522","Minas Gerais","PN do Itatiaia--Agulhas Negras Road (MG and RJ; 1700-2400m)","2018","1","OBS572166680"
"7","Dysithamnus xanthopterus Burmeister, 1856","-46.292653","-23.773406","São Paulo","Paranapiacaba--PNM Nascentes de Paranapiacaba","2018","1","OBS571722722"
"8","Dysithamnus xanthopterus Burmeister, 1856","-45.247181","-22.567078","Minas Gerais","Unnamed Road, Minas Gerais, BR (-22,567, -45,247)","2018","1","OBS568399813"
"9","Dysithamnus xanthopterus Burmeister, 1856","-45.263726","-22.534092","Minas Gerais","Delfim Moreira -- MG-350 - -22,5341x-45,2637","2018","2","OBS579430608"
"10","Dysithamnus xanthopterus Burmeister, 1856","-44.592969","-22.664314","São Paulo","Serra da Bocaina","2018","2","OBS575675895"
"11","Dysithamnus xanthopterus Burmeister, 1856","-46.288919","-23.767436","São Paulo","PNM Nascentes de Paranapiacaba-Estrada do Taquaruçu","2018","3","OBS584558349"
"12","Dysithamnus xanthopterus Burmeister, 1856","-44.796072","-22.352963","Minas Gerais","Itamonte--RPPN Alto Montana","2018","3","OBS594022827"
"13","Dysithamnus xanthopterus Burmeister, 1856","-46.396079","-23.324196","São Paulo","Guarulhos--AMBEV/PE Itaberaba","2018","3","OBS588374442"
"14","Dysithamnus xanthopterus Burmeister, 1856","-44.760225","-22.377042","Rio de Janeiro","Parque Nacional do Itatiaia (parte alta), Itamonte, Minas Gerais.","2018","3","OBS593923778"
"15","Dysithamnus xanthopterus Burmeister, 1856","-45.980847","-22.907252","São Paulo","Estrada dos Ferreiras, São Paulo, Sentido Trilha Do MiranteBR (-22,907, -45,981)","2018","3","OBS595859445"
"16","Dysithamnus xanthopterus Burmeister, 1856","-45.179165","-22.541663","Minas Gerais","Delfim Moreira--Estrada para o Pico dos Marins","2018","4","OBS599995288"
"17","Dysithamnus xanthopterus Burmeister, 1856","-45.478431","-22.703137","São Paulo","Estrada da Romaria--Até pousada Sta. Maria da Serra","2018","4","OBS604771140"
"18","Dysithamnus xanthopterus Burmeister, 1856","-49.516969","-28.504539","Santa Catarina","Santa Catarina, BR (-28,505, -49,517)","2018","4","OBS608318871"
"19","Dysithamnus xanthopterus Burmeister, 1856","-44.734746","-22.362522","Minas Gerais","PN Itatiaia  (parte alta), Itamonte, Minas Gerais, BR (-22,363, -44,735)","2018","4","OBS608308988"
"20","Dysithamnus xanthopterus Burmeister, 1856","-44.828996","-23.175727","Rio de Janeiro","Rio de Janeiro, BR (-23,176, -44,829)","2018","4","OBS615661160"
"21","Dysithamnus xanthopterus Burmeister, 1856","-45.229579","-22.568917","Minas Gerais","Piquete -- Trilha Do Pico Do Ataque.","2018","4","OBS604164225"
"22","Dysithamnus xanthopterus Burmeister, 1856","-49.518991","-28.504864","Santa Catarina","Treviso--Trilha dos Dois Dedos","2018","4","OBS608328825"
"23","Dysithamnus xanthopterus Burmeister, 1856","-45.293951","-22.506995","Minas Gerais","BR-Minas Gerais-Delfim-Estrada Pico Dos Marins Moreira - -22,507x-45,294 - 26 de mar de 2017 04:39","2018","5","OBS612120495"
"24","Dysithamnus xanthopterus Burmeister, 1856","-45.232507","-22.540341","Minas Gerais","Estrada De Acesso Ao Pico Dos Marins -- Delfim Moreira","2018","5","OBS627228276"
"25","Dysithamnus xanthopterus Burmeister, 1856","-45.414219","-22.717943","São Paulo","Estrada das Pedrinhas--Até pousada Sta. Maria da Serra","2018","5","OBS617575520"
"26","Dysithamnus xanthopterus Burmeister, 1856","-48.941879","-25.309036","Paraná","Rodovia da Graciosa, Paraná, BR (-25,309, -48,942)","2018","5","OBS612292014"
"27","Dysithamnus xanthopterus Burmeister, 1856","-46.743228","-23.985753","São Paulo","Marsilac, São Paulo BR-SP (-23.9858,-46.7432)","2018","5","OBS611008704"
"28","Dysithamnus xanthopterus Burmeister, 1856","-45.588286","-22.735976","São Paulo","Campos do Jordão - SP","2018","5","OBS625207630"
"29","Dysithamnus xanthopterus Burmeister, 1856","-48.913552","-25.337227","Paraná","Estrada do Corvo","2018","5","OBS612258786"
"30","Dysithamnus xanthopterus Burmeister, 1856","-48.273625","-24.308774","São Paulo","Parque Estadual Intervales","2018","5","OBS614839429"
"31","Dysithamnus xanthopterus Burmeister, 1856","-42.58484","-22.351568","Rio de Janeiro","Pico da Caledônia","2018","6","OBS635873507"
"32","Dysithamnus xanthopterus Burmeister, 1856","-42.584816","-22.342365","Rio de Janeiro","Estrada ao Pico da Caledônia","2018","6","OBS628606651"
"33","Dysithamnus xanthopterus Burmeister, 1856","-46.03051","-22.875414","Minas Gerais","Estalagem Spiler","2018","6","OBS635458855"
"34","Dysithamnus xanthopterus Burmeister, 1856","-45.397195","-22.629471","Minas Gerais","Estrada Divisa Charco/Parque ESTADUAL DE CAMPOS DO JORDÃO--MG/SP","2018","7","OBS646019767"
"35","Dysithamnus xanthopterus Burmeister, 1856","-44.821473","-23.153105","Rio de Janeiro","Trilha Dos 7 Degraus","2018","7","OBS640395788"
"36","Dysithamnus xanthopterus Burmeister, 1856","-49.5239","-26.652637","Santa Catarina","Trilha do macaco","2018","7","OBS639282907"
"37","Dysithamnus xanthopterus Burmeister, 1856","-44.746156","-22.36607","Minas Gerais","PN do Itatiaia--Agulhas Negras Road (MG; 1700-2200m)","2018","7","OBS643537395"
"38","Dysithamnus xanthopterus Burmeister, 1856","-44.724612","-22.36484","Rio de Janeiro","PN do Itatiaia--Agulhas Negras Road (RJ; 2200-2400m)","2018","7","OBS647556544"
"39","Dysithamnus xanthopterus Burmeister, 1856","-42.558074","-22.336804","Rio de Janeiro","Estrada para o Pico Caledonia,  Nova Friburgo","2018","7","OBS644305626"
"40","Dysithamnus xanthopterus Burmeister, 1856","-49.4833","-26.7144",NA,"Doutor Pedrinho, Santa Catarina","2018","7","426091@XC"
"41","Dysithamnus xanthopterus Burmeister, 1856","-44.737891","-22.366355","Minas Gerais","BR-485, Itamonte BR-MG (-22.3664,-44.7379)","2018","7","OBS651935996"
"42","Dysithamnus xanthopterus Burmeister, 1856","-45.142555","-22.505437","São Paulo","Trilha para os Marins -- Marmelópolis-- MG.","2018","7","OBS646024788"
"43","Dysithamnus xanthopterus Burmeister, 1856","-44.624233","-22.406585","Rio de Janeiro","PN do Itatiaia--área geral (Partes Baixa e Alta)","2018","7","OBS644427603"
"44","Dysithamnus xanthopterus Burmeister, 1856","-45.426492","-22.649939","São Paulo","PE Campos do Jordão--Divisa com MG","2018","7","OBS646023373"
"45","Dysithamnus xanthopterus Burmeister, 1856","-44.92594","-23.22694","São Paulo","São Paulo, BR (-23,227, -44,926)","2018","7","OBS643814518"
"46","Dysithamnus xanthopterus Burmeister, 1856","-44.812661","-23.139056","Rio de Janeiro","Mirante da ventania","2018","8","OBS650730930"
"47","Dysithamnus xanthopterus Burmeister, 1856","-45.397142","-22.629502","Minas Gerais","Estrada Charco/Campos Do Jordão -- Wenceslau Braz-- Mg.","2018","8","OBS655193439"
"48","Dysithamnus xanthopterus Burmeister, 1856","-46.038766","-22.863364","Minas Gerais","Monte Verde--área geral","2018","9","OBS662143689"
"49","Dysithamnus xanthopterus Burmeister, 1856","-48.584843","-24.434722","São Paulo","18330-000, Iporanga BR-SP (-24,4347,-48,5848)","2018","9","OBS666076973"
"50","Dysithamnus xanthopterus Burmeister, 1856","-48.955722","-25.585569","Paraná","Chácara Dona Keiko","2018","9","OBS660096349"
"51","Dysithamnus xanthopterus Burmeister, 1856","-45.14774","-22.509244","São Paulo","Trilha Da Base Marins Para Morro Do Careca -- Marmelópolis -- Mg.","2018","9","OBS665492758"
"52","Dysithamnus xanthopterus Burmeister, 1856","-42.49676","-22.310296","Rio de Janeiro","Itororo Eco Lodge","2018","9","OBS658643627"
"53","Dysithamnus xanthopterus Burmeister, 1856","-45.133856","-22.500172","Minas Gerais","Pico Dos Marins -- Marmelópolis--MG","2018","9","OBS655191486"
"54","Dysithamnus xanthopterus Burmeister, 1856","-45.642","-22.6797","São Paulo","São Bento do Sapucaí--Estrada do Baúzinho","2018","9","OBS659947543"
"55","Dysithamnus xanthopterus Burmeister, 1856","-44.82121","-23.151322","Rio de Janeiro","Estrada Da Pedra Da Macela, Rio de Janeiro, BR (-23,151, -44,821)","2018","9","OBS659130970"
"56","Dysithamnus xanthopterus Burmeister, 1856","-42.567215","-22.221734","Rio de Janeiro","Pico de Caledonia--Trilho Alto","2018","10","OBS665323977"
"57","Dysithamnus xanthopterus Burmeister, 1856","-46.537269","-23.688781","São Paulo","Trilha Taquarussu","2018","10","OBS665720125"
"58","Dysithamnus xanthopterus Burmeister, 1856","-44.525403","-22.350181","Rio de Janeiro","Parque Estadual da Pedra Selada","2018","10","OBS665006561"
"59","Dysithamnus xanthopterus Burmeister, 1856","-48.412757","-24.26821","São Paulo","PE Intervales","2018","10","OBS675601409"
"60","Dysithamnus xanthopterus Burmeister, 1856","-48.40595","-24.16468","São Paulo","PE Intervales--Estrada de acesso","2018","10","OBS670702630"
"61","Dysithamnus xanthopterus Burmeister, 1856","-42.585643","-22.345088","Rio de Janeiro",NA,"2018","10","18274799"
"62","Dysithamnus xanthopterus Burmeister, 1856","-43.269142","-22.482658","Rio de Janeiro","Rocio","2018","10","OBS664360097"
"63","Dysithamnus xanthopterus Burmeister, 1856","-46.290759","-23.772801","São Paulo","Paranapiacaba--Estrada do Taquaruçu","2018","10","OBS665491477"
"64","Dysithamnus xanthopterus Burmeister, 1856","-44.786517","-23.302303","Rio de Janeiro","Pico Do Cuscuzeiro - Paraty - RJ","2018","11","OBS681260384"
"65","Dysithamnus xanthopterus Burmeister, 1856","-44.614899","-22.736117","São Paulo","São José do Barreiro--PN Serra da Bocaina","2018","11","OBS708642874"
"66","Dysithamnus xanthopterus Burmeister, 1856","-44.756255","-22.373465","Minas Gerais","(-22.3735,-44.7563)","2018","11","OBS672640359"
"67","Dysithamnus xanthopterus Burmeister, 1856","-45.866096","-22.886119","São Paulo","São Francisco Xavier--Estrada do Rio Manso","2018","12","OBS686794473"
"68","Dysithamnus xanthopterus Burmeister, 1856","-44.751598","-22.372346","Minas Gerais","Estrada Parque Itamonte","2018","12","OBS709116227"
"69","Dysithamnus xanthopterus Burmeister, 1856","-45.969522","-22.878271","São Paulo","São Francisco Xavier--Serra dos Poncianos e trilhas","2018","12","OBS686621046"
"70","Dysithamnus xanthopterus Burmeister, 1856","-42.532278","-22.367974","Rio de Janeiro","Rua do Catete, 285–481, Nova Friburgo BR-RJ (-22,3680,-42,5323)","2018","12","OBS689804764"
"71","Dysithamnus xanthopterus Burmeister, 1856","-45.589828","-22.73724","São Paulo","Campos do Jordão--área geral","2018","12","OBS688770753"
"72","Dysithamnus xanthopterus Burmeister, 1856","-48.887171","-25.420645","Paraná","Morretes -- Estrada do Itupava","2017","1","OBS455329677"
"73","Dysithamnus xanthopterus Burmeister, 1856","-43.01","-22.448",NA,"Serra dos Órgãos National Park - RJ","2017","1","352159@XC"
"74","Dysithamnus xanthopterus Burmeister, 1856","-46.281653","-22.859865","Minas Gerais","Área rural Extrema-MG","2017","1","OBS457588868"
"75","Dysithamnus xanthopterus Burmeister, 1856","-45.33059","-22.494339","Minas Gerais","BR-Minas Gerais-Delfim Moreira atalho fazenda Bartira- -22,494x-45,331 - 15 de jan de 2017 06:26","2017","1","OBS457629470"
"76","Dysithamnus xanthopterus Burmeister, 1856","-46.327426","-22.891404","Minas Gerais","Trilha do Cume - Extrema - MG","2017","1","OBS457589219"
"77","Dysithamnus xanthopterus Burmeister, 1856","-42.49221","-22.37579","Rio de Janeiro","Macaé de Cima","2017","2","OBS470592046"
"78","Dysithamnus xanthopterus Burmeister, 1856","-44.383019","-22.779198","São Paulo","BR-São Paulo-Bananal-Estrada do Ariró - -22,779x-44,383","2017","2","OBS473394166"
"79","Dysithamnus xanthopterus Burmeister, 1856","-45.023265","-23.238897","São Paulo","PE Serra do Mar--Núcleo Cunha-Indaiá","2017","2","OBS469967726"
"80","Dysithamnus xanthopterus Burmeister, 1856","-49.097407","-26.224716","Santa Catarina","Estrada do Rio do Julio","2017","2","OBS466179311"
"81","Dysithamnus xanthopterus Burmeister, 1856","-44.472871","-22.879467","Rio de Janeiro","Bocaina","2017","3","OBS478418319"
"82","Dysithamnus xanthopterus Burmeister, 1856","-42.585899","-22.343886","Rio de Janeiro","Pico De Caledonia","2017","3","OBS475440444"
"83","Dysithamnus xanthopterus Burmeister, 1856","-45.481944","-22.689444","São Paulo","PE Campos do Jordão (Horto Florestal)","2017","3","OBS472033875"
"84","Dysithamnus xanthopterus Burmeister, 1856","-45.592687","-22.655598","São Paulo","Estrada Piranguçu/São Bento do Sapucaí- lago da represa. -22,656x-45,593","2017","3","OBS476578856"
"85","Dysithamnus xanthopterus Burmeister, 1856","-49.196904","-26.297506","Santa Catarina","Trilha Comfloresta-Rio Manso","2017","3","OBS476120896"
"86","Dysithamnus xanthopterus Burmeister, 1856","-45.301567","-22.505143","Minas Gerais","BR-Minas Gerais-Delfim Moreira Estrada Barreira - -22,505x-45,302 - 23 de abr de 2017 05:20","2017","4","OBS495338873"
"87","Dysithamnus xanthopterus Burmeister, 1856","-45.366077","-22.538209","Minas Gerais","BR-Minas Gerais-Wenceslau Braz-126-656 Rodovia Juscelino Kubitscheck de Oliveira - -22,538x-45,366","2017","5","OBS495337678"
"88","Dysithamnus xanthopterus Burmeister, 1856","-45.193194","-23.473019","São Paulo","Ubatuba--Corcovado","2017","5","OBS507352577"
"89","Dysithamnus xanthopterus Burmeister, 1856","-44.759224","-22.374101","Minas Gerais","-22,3741x-44,7592 - 17 de mai de 2017 06:14","2017","5","OBS501260495"
"90","Dysithamnus xanthopterus Burmeister, 1856","-45.104885","-23.354864","São Paulo","PE Serra do Mar--Núcleo Santa Virgínia","2017","5","OBS514985624"
"91","Dysithamnus xanthopterus Burmeister, 1856","-44.755429","-22.37344","Minas Gerais","-22,3734x-44,7554 - 18 de mai de 2017 06:35","2017","5","OBS501484447"
"92","Dysithamnus xanthopterus Burmeister, 1856","-45.354895","-22.525733","Minas Gerais","BR-Minas Gerais-Wenceslau Braz-26 Rodovia Juscelino Kubitscheck de Oliveira - -22,526x-45,355","2017","5","OBS505755210"
"93","Dysithamnus xanthopterus Burmeister, 1856","-42.586375","-22.345998","Rio de Janeiro","Pico da Caledônia - Nova Friburgo - RJ -22,346x-42,586 - 18/06/2017 08:30","2017","6","OBS512321469"
"94","Dysithamnus xanthopterus Burmeister, 1856","-48.857379","-25.221901","Paraná","Trilha para o pico do morro Itapiroca","2017","6","OBS511551539"
"95","Dysithamnus xanthopterus Burmeister, 1856","-45.362822","-22.535338","Minas Gerais","BR-Minas Gerais-Wenceslau Braz-164 Rodovia Juscelino Kubitscheck de Oliveira - -22,535x-45,363","2017","6","OBS512151836"
"96","Dysithamnus xanthopterus Burmeister, 1856","-45.305828","-22.504851","Minas Gerais","BR-Minas Gerais-Delfim Moreira - -22,505x-45,306 - 15 de jul de 2017 05:55","2017","7","OBS520189708"
"97","Dysithamnus xanthopterus Burmeister, 1856","-42.529707","-22.358331","Rio de Janeiro","Serra dos Tucanos--Trilho Theodoro","2017","7","OBS546735476"
"98","Dysithamnus xanthopterus Burmeister, 1856","-45.149171","-22.508715","São Paulo","BR-São Paulo-Piquete - -22,509x-45,149 - 22 de jul de 2017 06:50","2017","7","OBS520851672"
"99","Dysithamnus xanthopterus Burmeister, 1856","-44.609116","-22.435974","Rio de Janeiro","PN do Itatiaia--Trilha dos Três Picos","2017","8","OBS525631696"
"100","Dysithamnus xanthopterus Burmeister, 1856","-45.309404","-22.502901","Minas Gerais","Delfim Moreira, Minas Gerais, BR (-22,503, -45,309)","2017","8","OBS526155438"
"101","Dysithamnus xanthopterus Burmeister, 1856","-45.294171","-22.50699","Minas Gerais","MG-350, Minas Gerais, BR (-22,507, -45,294)","2017","8","OBS526504474"
"102","Dysithamnus xanthopterus Burmeister, 1856","-44.740896","-22.367758","Minas Gerais","Parque Nacional do Itatiaia, parte alta, Itamonte,BR (-22,368, -44,741)","2017","9","OBS530739369"
"103","Dysithamnus xanthopterus Burmeister, 1856","-44.725223","-22.365088","Rio de Janeiro","Unnamed Road, Minas Gerais, BR (-22,365, -44,725)","2017","9","OBS530739066"
"104","Dysithamnus xanthopterus Burmeister, 1856","-45.651377","-22.863645","São Paulo","Santo Antônio do Pinhal--Pico Agudo","2017","9","OBS628298058"
"105","Dysithamnus xanthopterus Burmeister, 1856","-45.250094","-22.574376","Minas Gerais","Estrada Barreira- Fazenda Da Onça. (-22,574, -45,25)","2017","9","OBS535475712"
"106","Dysithamnus xanthopterus Burmeister, 1856","-48.583715","-24.604585","São Paulo","Iporanga","2017","10","OBS545887736"
"107","Dysithamnus xanthopterus Burmeister, 1856","-47.561188","-24.00366","São Paulo","Trilha dos Tucanos","2017","10","OBS539650460"
"108","Dysithamnus xanthopterus Burmeister, 1856","-45.357584","-22.61571","Minas Gerais","Delfim Moreira--Fazenda da Onça","2017","11","OBS547348391"
"109","Dysithamnus xanthopterus Burmeister, 1856","-45.129824","-23.353788","São Paulo","Parque Estadual da Serra do Mar - Núcleo Santa Virgínia","2017","11","OBS549120574"
"110","Dysithamnus xanthopterus Burmeister, 1856","-45.145986","-22.539043","São Paulo","Estrada/Bairro Marins(-22,539, -45,146)","2017","12","OBS554032224"
"111","Dysithamnus xanthopterus Burmeister, 1856","-45.469478","-22.710709","São Paulo","BR-São Paulo-Campos do Jordão-Unnamed Rd - -22,711x-45,469 - 13/02/2016 9:21 AM","2016","2","OBS372979051"
"112","Dysithamnus xanthopterus Burmeister, 1856","-44.83233","-23.175714","Rio de Janeiro","Estrada Paraty-Cunha (RJ-165)","2016","2","OBS370901021"
"113","Dysithamnus xanthopterus Burmeister, 1856","-43.25259","-22.48449","Rio de Janeiro","Reserva Biológica de Araras - Pico do Couto","2016","3","OBS388476513"
"114","Dysithamnus xanthopterus Burmeister, 1856","-45.50286","-22.691557","São Paulo","Campos do Jordão--Estrada do Borboletário","2016","3","OBS644151874"
"115","Dysithamnus xanthopterus Burmeister, 1856","-43.246865","-22.453632","Rio de Janeiro","Pico do Couto, Araras, RJ","2016","3","OBS387896884"
"116","Dysithamnus xanthopterus Burmeister, 1856","-42.498851","-22.309505","Rio de Janeiro","Brazil-Itororo Eco Lodge","2016","5","OBS415733984"
"117","Dysithamnus xanthopterus Burmeister, 1856","-45.505657","-22.694156","São Paulo","BR-São Paulo-Campos do Jordão ","2016","5","OBS402864871"
"118","Dysithamnus xanthopterus Burmeister, 1856","-42.642145","-22.444509","Rio de Janeiro","Serra dos Tucanos Lodge","2016","5","OBS415739146"
"119","Dysithamnus xanthopterus Burmeister, 1856","-44.696937","-22.229044","Minas Gerais","RPPN François Robert Arthur - Itamonte / MG","2016","6","OBS422549493"
"120","Dysithamnus xanthopterus Burmeister, 1856","-49.513521","-28.241388","Santa Catarina","BR-Santa Catarina-Orleans - -28,241x-49,514 - 29/06/2016 05:43","2016","6","OBS415443837"
"121","Dysithamnus xanthopterus Burmeister, 1856","-45.25155","-22.575656","Minas Gerais","Delfim Moreira--Barreira","2016","7","OBS417510018"
"122","Dysithamnus xanthopterus Burmeister, 1856","-44.7334","-22.3667",NA,"Itatiaia National Park - Agulhas Negras road","2016","8","332789@XC"
"123","Dysithamnus xanthopterus Burmeister, 1856","-42.555932","-22.377001","Rio de Janeiro","Theodora Trail","2016","9","OBS444987330"
"124","Dysithamnus xanthopterus Burmeister, 1856","-45.260823","-22.57508","Minas Gerais","BR-Minas Gerais-Delfim Moreira-Unnamed Road - -22,575x-45,261","2016","9","OBS430817328"
"125","Dysithamnus xanthopterus Burmeister, 1856","-46.293037","-23.773742","São Paulo","BR-São Paulo-Santo André-Estr. do Taquaruçu - -23,774x-46,293","2016","9","OBS431122613"
"126","Dysithamnus xanthopterus Burmeister, 1856","-44.390473","-22.776419","São Paulo","Bananal SP","2016","9","OBS429344991"
"127","Dysithamnus xanthopterus Burmeister, 1856","-42.567175","-22.3389","Rio de Janeiro","Caledonia","2016","10","OBS588581539"
"128","Dysithamnus xanthopterus Burmeister, 1856","-42.557208","-22.375929","Rio de Janeiro","Serra dos Tucanos--Trilho Cedae","2016","10","OBS436104821"
"129","Dysithamnus xanthopterus Burmeister, 1856","-45.655682","-22.684747","São Paulo","Monumento Natural Pedra do Baú","2016","10","OBS438413890"
"130","Dysithamnus xanthopterus Burmeister, 1856","-45.263683","-22.577759","Minas Gerais","-22,578x-45,264 - Fazenda Bartira 01/10/2016 18:12","2016","10","OBS433398483"
"131","Dysithamnus xanthopterus Burmeister, 1856","-43.01302","-22.44732","Rio de Janeiro","Pedra do Sino Trail","2016","10","OBS437679907"
"132","Dysithamnus xanthopterus Burmeister, 1856","-43.032824","-22.411787","Rio de Janeiro","-22.4118x-43.0328 - Nov 11, 2016, 7:35 AM (side of BR 495)","2016","11","OBS456438790"
"133","Dysithamnus xanthopterus Burmeister, 1856","-44.840567","-23.197925","Rio de Janeiro","P1-1100-RJ165","2016","11","OBS449059646"
"134","Dysithamnus xanthopterus Burmeister, 1856","-44.833643","-23.172283","Rio de Janeiro","BR-Rio de Janeiro-Paraty-15555-15649 Rodovia Parati-Cunha - -23,172x-44,834","2016","11","OBS443813161"
"135","Dysithamnus xanthopterus Burmeister, 1856","-45.375484","-22.478525","Minas Gerais","Estrada de acesso ao Pico dos Marins -22,479x-45,375 - 29 de dez de 2016 05:05","2016","12","OBS452791595"
"136","Dysithamnus xanthopterus Burmeister, 1856","-45.615964","-22.769059","São Paulo","Trilha Zig Zag","2016","12","OBS453742795"
"137","Dysithamnus xanthopterus Burmeister, 1856","-45.6216","-22.7786",NA,"Campos do Jordão, São Paulo","2016","12","348880@XC"
"138","Dysithamnus xanthopterus Burmeister, 1856","-44.381376","-22.788445","São Paulo","Fazenda Encontro - BR-São Paulo-Bananal - -22,788x-44,381 - 31/12/2016 20:54","2016","12","OBS453085497"
"139","Dysithamnus xanthopterus Burmeister, 1856","-46.317029","-22.880129","Minas Gerais","Serra do Lopo - Extrema, MG","2015","1","OBS412351176"
"140","Dysithamnus xanthopterus Burmeister, 1856","-46.313782","-22.884146","Minas Gerais","Extrema--Serra do Lopo","2015","1","OBS291723166"
"141","Dysithamnus xanthopterus Burmeister, 1856","-44.590161","-22.363053","Rio de Janeiro","PE Pedra Selada--Fazenda Marimbondo","2015","2","OBS302306395"
"142","Dysithamnus xanthopterus Burmeister, 1856","-44.576681","-22.355483","Rio de Janeiro","PE Pedra Selada--Vale do Pavão","2015","2","OBS710953157"
"143","Dysithamnus xanthopterus Burmeister, 1856","-44.762931","-22.375678","Minas Gerais","Hotel São Gotardo","2015","3","OBS305640298"
"144","Dysithamnus xanthopterus Burmeister, 1856","-46.311233","-23.779397","São Paulo","Estação Biológica de Paranapiacaba (Alto da Serra)","2015","3","OBS306200396"
"145","Dysithamnus xanthopterus Burmeister, 1856","-45.225358","-22.569262","São Paulo","Piquete--Pico do Ataque","2015","4","OBS311146688"
"146","Dysithamnus xanthopterus Burmeister, 1856","-45.47234","-22.70245","São Paulo","Estrada PECJ","2015","5","OBS326467883"
"147","Dysithamnus xanthopterus Burmeister, 1856","-49.096832","-26.219352","Santa Catarina","Joinville, Rio do Júlio","2015","5","OBS318543795"
"148","Dysithamnus xanthopterus Burmeister, 1856","-44.619593","-22.717306","São Paulo","São José do Barreiro -- Pousada Campos da Bocaina","2015","5","OBS322313588"
"149","Dysithamnus xanthopterus Burmeister, 1856","-44.840054","-23.168669","Rio de Janeiro","Paraty - Cunha1500","2015","5","OBS318582587"
"150","Dysithamnus xanthopterus Burmeister, 1856","-46.035869","-22.872537","Minas Gerais","Monte Verde - Hotel Cabeça de Boi e arredores","2015","5","OBS322656744"
"151","Dysithamnus xanthopterus Burmeister, 1856","-49.09698","-26.2212","Santa Catarina","Joinville, Rio do Júlio","2015","5","OBS317749434"
"152","Dysithamnus xanthopterus Burmeister, 1856","-49.097229","-26.21225","Santa Catarina","Rio do Julio - Joinville/SC - -26.2123x-49.0972 - 01/06/2015 14:14","2015","6","OBS324582374"
"153","Dysithamnus xanthopterus Burmeister, 1856","-44.743729","-22.369498","Minas Gerais","Agulhas Negras Road (kms 3-5)","2015","6","OBS328351945"
"154","Dysithamnus xanthopterus Burmeister, 1856","-44.615204","-22.432516","Rio de Janeiro","Itatiaia","2015","6","OBS331507862"
"155","Dysithamnus xanthopterus Burmeister, 1856","-44.759898","-22.374987","Minas Gerais","Agulhas Negras Road (first km)","2015","6","OBS328347225"
"156","Dysithamnus xanthopterus Burmeister, 1856","-44.74929","-22.37317","Minas Gerais","Agulhas Negras Road","2015","6","OBS328224442"
"157","Dysithamnus xanthopterus Burmeister, 1856","-45.477862","-22.703474","São Paulo","Campos do Jordão - Estrada do Horto","2015","6","OBS325121245"
"158","Dysithamnus xanthopterus Burmeister, 1856","-42.550886","-22.38","Rio de Janeiro","Serra dos Tucanos--Trilho Bamboo","2015","7","OBS427345887"
"159","Dysithamnus xanthopterus Burmeister, 1856","-44.570656","-22.383254","Rio de Janeiro","RPPN Santo Antônio--Trilha Divisor de Águas","2015","7","OBS329954834"
"160","Dysithamnus xanthopterus Burmeister, 1856","-45.58983","-22.73724","São Paulo","Campos do Jordao","2015","8","OBS337976914"
"161","Dysithamnus xanthopterus Burmeister, 1856","-44.75152","-22.385555","Rio de Janeiro","BR-RJ-Road354 Highlands","2015","8","OBS339072091"
"162","Dysithamnus xanthopterus Burmeister, 1856","-43.01","-22.4667",NA,"Serra dos Orgaos National Park. Teresopolis","2015","9","295594@XC"
"163","Dysithamnus xanthopterus Burmeister, 1856","-44.559584","-22.485532","Rio de Janeiro","Agulhas Negras Riad","2015","9","OBS344111285"
"164","Dysithamnus xanthopterus Burmeister, 1856","-42.512498","-22.29136","Rio de Janeiro","Itororo Lodge, Brazil","2015","10","OBS518888513"
"165","Dysithamnus xanthopterus Burmeister, 1856","-43.001277","-22.466333","Rio de Janeiro","Parnaso","2015","10","OBS359242434"
"166","Dysithamnus xanthopterus Burmeister, 1856","-45.547814","-22.697575","São Paulo","Campos do Jordao","2015","11","OBS356099575"
"167","Dysithamnus xanthopterus Burmeister, 1856","-44.615079","-22.431983","Rio de Janeiro","PN de Itatiaia--Hotel do Ypê","2014","7","OBS456207029"
"168","Dysithamnus xanthopterus Burmeister, 1856","-42.68144","-22.559721","Rio de Janeiro","turn in the Road on the way to Pico de Caledonia, Brazil","2014","10","OBS279250427"
"169","Dysithamnus xanthopterus Burmeister, 1856","-43.268479","-22.488816","Rio de Janeiro","BR-RJ-Petrópolis-1604-1844 Caminho do Imperador","2014","12","OBS284690274"
"170","Dysithamnus xanthopterus Burmeister, 1856","-45.392588","-22.617436","Minas Gerais","Delfim Moreira--Charco","2014","12","OBS285967240"
"171","Dysithamnus xanthopterus Burmeister, 1856","-43.01572","-22.45321","Rio de Janeiro","Brazil - Serra Dos Orgaos","2013","1","OBS177351791"
"172","Dysithamnus xanthopterus Burmeister, 1856","-45.4964","-22.7008",NA,"Campos do Jordão, São Paulo","2013","1","120210@XC"
"173","Dysithamnus xanthopterus Burmeister, 1856","-46.3345","-22.8934",NA,"Serra do Lopo, Extrema, Minas Gerais State","2013","3","212689@XC"
"174","Dysithamnus xanthopterus Burmeister, 1856","-45.583804","-22.761382","São Paulo","Campos do Jordão--Colônia do Mackenzie","2013","4","OBS446568842"
"175","Dysithamnus xanthopterus Burmeister, 1856","-48.417537","-24.264547","São Paulo","Intervales Iporanga SP","2013","12","OBS615380628"
"176","Dysithamnus xanthopterus Burmeister, 1856","-44.740663","-22.368095","Minas Gerais","PN Itatiaia - Trilha alta","2012","1","OBS455970188"
"177","Dysithamnus xanthopterus Burmeister, 1856","-44.607882","-22.440146","Rio de Janeiro","PN Itatiaia - Trilha baixa","2012","1","OBS455967103"
"178","Dysithamnus xanthopterus Burmeister, 1856","-42.738013","-22.412797","Rio de Janeiro","REGUA -- Green Trail","2012","4","OBS412519344"
"179","Dysithamnus xanthopterus Burmeister, 1856","-49.0201","-27.2578",NA,"RPPN Prima Luna, Nova Trento, Santa Catarina","2012","8","109388@XC"
"180","Dysithamnus xanthopterus Burmeister, 1856","-42.645235","-22.432936","Rio de Janeiro","Cedae Trail","2012","9","OBS175109710"
"181","Dysithamnus xanthopterus Burmeister, 1856","-44.711094","-22.456383","Rio de Janeiro","Itatiaia--snipe valley farm","2012","9","OBS263735185"
"182","Dysithamnus xanthopterus Burmeister, 1856","-42.5672","-22.2217","Rio de Janeiro","Pico da Caledonia (near Nova Friburgo)","2012","10","OBS260725345"
"183","Dysithamnus xanthopterus Burmeister, 1856","-42.560821","-22.218913","Rio de Janeiro","Pico de Caledonia -- Trilha Baixo","2012","10","OBS169996184"
"184","Dysithamnus xanthopterus Burmeister, 1856","-42.5509","-22.38","Rio de Janeiro","Bamboo Trail [Trilho Bamboo] ca 10 km S. from Nova Friburgo","2012","11","OBS260724809"
"185","Dysithamnus xanthopterus Burmeister, 1856","-44.7428","-22.33249","Minas Gerais","Brazil - Agulhos Negros Rd","2012","12","OBS174907323"
"186","Dysithamnus xanthopterus Burmeister, 1856","-45.1338","-23.3601",NA,"Ubatuba. SP-125 road, top of serra","2011","1","78515@XC"
"187","Dysithamnus xanthopterus Burmeister, 1856","-45.122188","-23.357546","São Paulo","Serra Trail","2011","2","OBS180821227"
"188","Dysithamnus xanthopterus Burmeister, 1856","-42.922507","-22.440983","Rio de Janeiro","PE Três Picos--Jacarandá","2011","3","OBS416638162"
"189","Dysithamnus xanthopterus Burmeister, 1856","-45.164696","-23.319193","São Paulo","Reserva Guainumbi","2011","5","OBS294236419"
"190","Dysithamnus xanthopterus Burmeister, 1856","-46.405827","-23.303894",NA,"Parque Estadual Itaberaba - Guarulhos, SP","2010","1","76040@XC"
"191","Dysithamnus xanthopterus Burmeister, 1856","-42.564468","-22.227455","Rio de Janeiro","Pico de Caledonia trip","2010","3","OBS461484510"
"192","Dysithamnus xanthopterus Burmeister, 1856","-48.9001","-25.3334",NA,"Estrada da Graciosa, Paraná state","2010","7","59036@XC"
"193","Dysithamnus xanthopterus Burmeister, 1856","-42.465611","-22.406111","Rio de Janeiro","Vale das Taquaras","2009","7","OBS699875046"
"194","Dysithamnus xanthopterus Burmeister, 1856","-46.6503","-23.9557",NA,"APA Capivari Monos, São Paulo, SP","2009","8","187614@XC"
"195","Dysithamnus xanthopterus Burmeister, 1856","-44.611037","-22.444906","Rio de Janeiro","PN do Itatiaia--Parte Baixa (Hotéis Ype, Donati, Simon; 400-800m)","2009","9","OBS704660283"
"196","Dysithamnus xanthopterus Burmeister, 1856","-44.68689","-22.362268","Minas Gerais","Agulhas Negras","2009","11","OBS78414010"
"197","Dysithamnus xanthopterus Burmeister, 1856","-42.570305","-22.212517","Rio de Janeiro","Pico de Caledonia Mtn./high trail","2008","11","OBS58826022"
"198","Dysithamnus xanthopterus Burmeister, 1856","-45.85","-22.65",NA,"Brazil:Minas Gerais, Goncalves, Serra do Juncal, Sertao do Cantagalo","2007","9","KM896320"
"199","Dysithamnus xanthopterus Burmeister, 1856","-42.983682","-22.448428","Rio de Janeiro","Serra dos Órgãos","2007","10","OBS521411677"
"200","Dysithamnus xanthopterus Burmeister, 1856","-42.770932","-22.450948","Rio de Janeiro","Reserva Ecológica de Guapiaçu (REGUA)","2007","10","OBS659235445"
"201","Dysithamnus xanthopterus Burmeister, 1856","-42.7231","-22.3742","Rio de Janeiro","Serra dos Orgaos","2006","6","OBS154798267"
"202","Dysithamnus xanthopterus Burmeister, 1856","-43.005118","-22.467132","Rio de Janeiro","Serra das Órgãos, Teresópolis","2006","9","OBS165059911"
"203","Dysithamnus xanthopterus Burmeister, 1856","-42.585905","-22.353736","Rio de Janeiro","Serra dos Orgaos SP","2006","11","OBS169720915"
"204","Dysithamnus xanthopterus Burmeister, 1856","-44.4501","-22.8667",NA,"Serra da Bocaina. Casa da Bocaina","2005","1","78451@XC"
"205","Dysithamnus xanthopterus Burmeister, 1856","-42.501","-22.394",NA,"Macaé de Cima, Nova Friburgo, RJ","2005","4","17510@XC"
"206","Dysithamnus xanthopterus Burmeister, 1856","-42.969602","-22.410613","Rio de Janeiro","TeresÃ³polis Serra dos Gohas Brazil","2005","5","OBS174171521"
"207","Dysithamnus xanthopterus Burmeister, 1856","-42.522854","-22.309929","Rio de Janeiro","Nova Friburgo","2005","8","OBS497833265"
"208","Dysithamnus xanthopterus Burmeister, 1856","-44.73582","-22.366032","Minas Gerais","Agulhas Negras, Itatiaia NP","2005","8","OBS667549319"
"209","Dysithamnus xanthopterus Burmeister, 1856","-44.683113","-22.376958","Rio de Janeiro","Brazil Itatiaia higher part ; pm west of park less rain","2004","7","OBS574446649"
"210","Dysithamnus xanthopterus Burmeister, 1856","-44.8167","-23.2001",NA,"Serra da Bocaina State Park. Parati-Cunha road","2003","1","239832@XC"
"211","Dysithamnus xanthopterus Burmeister, 1856","-45.866667","-23.633333","São Paulo","Sao Paulo, Boraceia Biological Station","2003","2","OBS136000213"
"212","Dysithamnus xanthopterus Burmeister, 1856","-44.605039","-22.404493","Rio de Janeiro","Itatiaia NP--Tres Picos","2003","9","OBS376462862"
"213","Dysithamnus xanthopterus Burmeister, 1856","-44.691696","-22.378651","Rio de Janeiro","Itatiaia NP: Agulhas Negras Rd","2003","11","OBS47706071"
"214","Dysithamnus xanthopterus Burmeister, 1856","-45.6001","-22.7167",NA,"Road to Pedra do Baú, Campos do Jordão, SP","2002","4","78511@XC"
"215","Dysithamnus xanthopterus Burmeister, 1856","-42.671585","-22.048359","Rio de Janeiro","Sumidouro region","2001","7","OBS237390896"
"216","Dysithamnus xanthopterus Burmeister, 1856","-46","-23.683333","São Paulo","Estacao Biologica de Boraceia","2000","6","05e31c9e-a0ab-448f-aa1a-8d4392331fd0"
"217","Dysithamnus xanthopterus Burmeister, 1856","-45.8667","-23.6334",NA,"Boraceia Biological Station, SP state","2000","6","78508@XC"
"218","Dysithamnus xanthopterus Burmeister, 1856","-45.9834","-22.9667",NA,"Sao Francisco Xavier, SP","1998","2","78441@XC"
"219","Dysithamnus xanthopterus Burmeister, 1856","-44.61993","-22.42904","Rio de Janeiro","PN do Itatiaia--Piscina do Maromba Trail","1998","10","OBS389111013"
"220","Dysithamnus xanthopterus Burmeister, 1856","-44.75","-22.75","São Paulo","Serra da Bocaina, Vale do Rio Vermelho","1998","11","4bad45bc-330e-47ef-a3f9-4dcd7e2bee7a"
"221","Dysithamnus xanthopterus Burmeister, 1856","-45.889644","-23.654184","São Paulo","Estação Biológica de Boracéia","1991","12","OBS525789892"
"222","Dysithamnus xanthopterus Burmeister, 1856","-44.609921","-22.444232","Rio de Janeiro","Itatiaia trails","1990","8","OBS572555074"
"223","Dysithamnus xanthopterus Burmeister, 1856","-44.57","-22.5","Rio de Janeiro","ITATIAIA; PARQUE NACIONAL, KM 10","1957","3","dc9bb773-b614-4993-aa4b-e6224bdc1709"
"224","Dysithamnus xanthopterus Burmeister, 1856","-56.097","-15.596",NA,NA,"1700","1","MCZ:Orn:84747"
"225","Dysithamnus xanthopterus Burmeister, 1856","-42.98","-22.43","Rj","Varginha, Canoas, Teresópolis",NA,NA,"Br:MNRJ:Aves:37207"
"226","Dysithamnus xanthopterus Burmeister, 1856","-44.32","-22.68","Sp","Sertão das Cobras",NA,NA,"Br:MNRJ:Aves:26518"
"227","Dysithamnus xanthopterus Burmeister, 1856","-42.53","-22.27","Rj","Fazenda Campestre, Nova Friburgo",NA,NA,"Br:MNRJ:Aves:35182"
"228","Dysithamnus xanthopterus Burmeister, 1856","-49.08","-25.37","Pr","Corvo, Quatro Barras",NA,NA,"Br:MNRJ:Aves:38933"
"229","Dysithamnus xanthopterus Burmeister, 1856","-44.95","-44.42","Sp","Bocaina, Rio Paca Grande",NA,NA,"Br:MNRJ:Aves:38823"
"230","Dysithamnus xanthopterus Burmeister, 1856","-43.17","-22.52","Rj","Petrópolis",NA,NA,"Br:MNRJ:Aves:16829"
"231","Dysithamnus xanthopterus Burmeister, 1856","-48.88","-25.37","Pr","Corvo, Serra Graciosa",NA,NA,"Br:MNRJ:Aves:16832"
