"","name","longitude","latitude","state","locality","year","month","identifier"
"1","Saltator maxillosus Cabanis, 1851","-49.585277","-27.999849","Santa Catarina",NA,"2019","5","25009669"
"2","Saltator maxillosus Cabanis, 1851","-49.5239","-26.652637","Santa Catarina","Trilha do macaco","2018","1","OBS565577383"
"3","Saltator maxillosus Cabanis, 1851","-50.808933","-28.897019","Rio Grande do Sul","PE Palanq","2018","1","OBS565386697"
"4","Saltator maxillosus Cabanis, 1851","-49.934151","-27.951291","Santa Catarina","Urupema -- Eco-Pousada Rio dos Touros","2018","1","OBS570481149"
"5","Saltator maxillosus Cabanis, 1851","-44.737533","-22.358143","Minas Gerais","Itamonte MG","2018","1","OBS573730890"
"6","Saltator maxillosus Cabanis, 1851","-44.756815","-22.373522","Minas Gerais","PN do Itatiaia--Agulhas Negras Road (MG and RJ; 1700-2400m)","2018","1","OBS642656324"
"7","Saltator maxillosus Cabanis, 1851","-44.724612","-22.36484","Rio de Janeiro","PN do Itatiaia--Agulhas Negras Road (RJ; 2200-2400m)","2018","1","OBS563663261"
"8","Saltator maxillosus Cabanis, 1851","-49.51262","-27.276021","Santa Catarina","Lontras--Três Picos","2018","2","OBS581068664"
"9","Saltator maxillosus Cabanis, 1851","-49.307269","-25.385019","Paraná","Casa do Seu Jose","2018","2","OBS606138197"
"10","Saltator maxillosus Cabanis, 1851","-50.174809","-29.480994","Rio Grande do Sul","CPCN Pró Mata PUCRS","2018","2","OBS579889006"
"11","Saltator maxillosus Cabanis, 1851","-48.811634","-25.099901","Paraná","Estrada do Taquaral - Campina Grande so Sul","2018","2","OBS577076319"
"12","Saltator maxillosus Cabanis, 1851","-49.149485","-27.686872","Santa Catarina","Morro da Boa Vista","2018","2","OBS573484613"
"13","Saltator maxillosus Cabanis, 1851","-48.907727","-25.333925","Paraná","83420, Quatro Barras BR-PR (-25.3339,-48.9077)","2018","3","OBS593611598"
"14","Saltator maxillosus Cabanis, 1851","-44.760225","-22.377042","Rio de Janeiro","Parque Nacional do Itatiaia (parte alta), Itamonte, Minas Gerais.","2018","3","OBS593923792"
"15","Saltator maxillosus Cabanis, 1851","-45.50286","-22.691557","São Paulo","Campos do Jordão--Estrada do Borboletário","2018","3","OBS592678162"
"16","Saltator maxillosus Cabanis, 1851","-49.516969","-28.504539","Santa Catarina","Santa Catarina, BR (-28,505, -49,517)","2018","4","OBS608318896"
"17","Saltator maxillosus Cabanis, 1851","-45.179165","-22.541663","Minas Gerais","Delfim Moreira--Estrada para o Pico dos Marins","2018","4","OBS604791724"
"18","Saltator maxillosus Cabanis, 1851","-49.103512","-25.733764","Paraná","Guaricana","2018","4","OBS600377015"
"19","Saltator maxillosus Cabanis, 1851","-49.518991","-28.504864","Santa Catarina","Treviso--Trilha dos Dois Dedos","2018","4","OBS608328850"
"20","Saltator maxillosus Cabanis, 1851","-43.488417","-20.097742","Minas Gerais","Santuário do Caraça--área geral","2018","4","OBS606178706"
"21","Saltator maxillosus Cabanis, 1851","-49.8767","-27.9545","Santa Catarina","Urupema","2018","4","OBS606646765"
"22","Saltator maxillosus Cabanis, 1851","-45.588619","-22.70355","São Paulo","Campos do Jordão--Pico do Imbiri","2018","4","OBS605052790"
"23","Saltator maxillosus Cabanis, 1851","-49.9345","-27.9514",NA,"Urupema. Pousada Rio dos Touros, Santa Catarina","2018","4","411809@XC"
"24","Saltator maxillosus Cabanis, 1851","-45.478431","-22.703137","São Paulo","Estrada da Romaria--Até pousada Sta. Maria da Serra","2018","4","OBS605973522"
"25","Saltator maxillosus Cabanis, 1851","-51.080372","-29.518175","Rio Grande do Sul","Morro Reuter--Estrada José Klauck","2018","5","OBS613922326"
"26","Saltator maxillosus Cabanis, 1851","-49.478542","-28.126699","Santa Catarina","Urubici -- Morro da Igreja","2018","5","OBS626137241"
"27","Saltator maxillosus Cabanis, 1851","-45.414219","-22.717943","São Paulo","Estrada das Pedrinhas--Até pousada Sta. Maria da Serra","2018","5","OBS617575516"
"28","Saltator maxillosus Cabanis, 1851","-45.588995","-22.705318","São Paulo","Campos do Jordão - SP","2018","5","OBS623853901"
"29","Saltator maxillosus Cabanis, 1851","-48.913552","-25.337227","Paraná","Estrada do Corvo","2018","5","OBS612258853"
"30","Saltator maxillosus Cabanis, 1851","-50.888941","-26.055843","Paraná","Serra da Esperança Paulo Frontin, Paraná, BR (-26,056, -50,889)","2018","5","OBS618861246"
"31","Saltator maxillosus Cabanis, 1851","-49.170789","-26.283914","Santa Catarina","POUSADA RIO MANSO","2018","5","OBS629433656"
"32","Saltator maxillosus Cabanis, 1851","-48.941879","-25.309036","Paraná","Rodovia da Graciosa, Paraná, BR (-25,309, -48,942)","2018","5","OBS613206421"
"33","Saltator maxillosus Cabanis, 1851","-49.518278","-28.076411","Santa Catarina","Urubici--Cachoeira Véu da Noiva","2018","5","OBS626168879"
"34","Saltator maxillosus Cabanis, 1851","-49.170749","-26.283909","Santa Catarina","POUSADA RIO MANSO","2018","6","OBS646059439"
"35","Saltator maxillosus Cabanis, 1851","-42.58484","-22.351568","Rio de Janeiro","Pico da Caledônia","2018","6","OBS651929830"
"36","Saltator maxillosus Cabanis, 1851","-48.955722","-25.585569","Paraná","Chácara Dona Keiko","2018","6","OBS635258068"
"37","Saltator maxillosus Cabanis, 1851","-44.624233","-22.406585","Rio de Janeiro","PN do Itatiaia--área geral (Partes Baixa e Alta)","2018","7","OBS644427567"
"38","Saltator maxillosus Cabanis, 1851","-49.364576","-26.571045","Santa Catarina","(-26,571, -49,365)","2018","7","OBS648569246"
"39","Saltator maxillosus Cabanis, 1851","-54.2171","-26.868411","Misiones","PP Caá Yarí (AICA MI15)","2018","7","OBS646001207"
"40","Saltator maxillosus Cabanis, 1851","-44.744","-22.369","Minas Gerais","Estrada das Agulhas Negras - ParNa Itatiaia","2018","7","OBS636665341"
"41","Saltator maxillosus Cabanis, 1851","-44.611037","-22.444906","Rio de Janeiro","PN do Itatiaia--Parte Baixa (Hotéis Ype, Donati, Simon; 400-800m)","2018","7","OBS637944765"
"42","Saltator maxillosus Cabanis, 1851","-51.670697","-26.502723","Paraná","Palmas--Fazenda Cerro Chato","2018","7","OBS639284763"
"43","Saltator maxillosus Cabanis, 1851","-42.558074","-22.336804","Rio de Janeiro","Estrada para o Pico Caledonia,  Nova Friburgo","2018","7","OBS644305606"
"44","Saltator maxillosus Cabanis, 1851","-44.746156","-22.36607","Minas Gerais","PN do Itatiaia--Agulhas Negras Road (MG; 1700-2200m)","2018","7","OBS639040946"
"45","Saltator maxillosus Cabanis, 1851","-49.553163","-28.278136","Santa Catarina","ParNa São Joaquim - Canion Laranjeiras","2018","7","OBS644784190"
"46","Saltator maxillosus Cabanis, 1851","-45.93835","-22.706724","Minas Gerais","BR-MG-Camanducaia (-22,7067,-45,9383)  Trutaria e Pousada Lagoa Azul","2018","7","OBS705284910"
"47","Saltator maxillosus Cabanis, 1851","-45.397142","-22.629502","Minas Gerais","Estrada Charco/Campos Do Jordão -- Wenceslau Braz-- Mg.","2018","8","OBS655193475"
"48","Saltator maxillosus Cabanis, 1851","-49.284335","-25.378326","Paraná","Curitiba--Parque Tanguá","2018","8","OBS652857194"
"49","Saltator maxillosus Cabanis, 1851","-49.414367","-25.192283","Paraná","Paraná, BR (-25,192, -49,414)","2018","8","OBS645664661"
"50","Saltator maxillosus Cabanis, 1851","-49.828196","-25.344744","Paraná","Santa Rita, Paraná, BR (-25,345, -49,828)","2018","8","OBS651823905"
"51","Saltator maxillosus Cabanis, 1851","-49.097407","-26.224716","Santa Catarina","Estrada do Rio do Julio","2018","8","OBS650867115"
"52","Saltator maxillosus Cabanis, 1851","-50.118771","-29.087922","Rio Grande do Sul","Cambará do Sul--Estrada para o Cânion do Itaimbezinho","2018","8","OBS646429083"
"53","Saltator maxillosus Cabanis, 1851","-45.993764","-22.92487","São Paulo","39690-000, São José dos Campos BR-SP (-22,9249,-45,9938)","2018","8","OBS645514744"
"54","Saltator maxillosus Cabanis, 1851","-50.693797","-28.845081","Rio Grande do Sul","95400-000, São Francisco de Paula BR-RS (-28,8451,-50,6938)","2018","8","OBS646494061"
"55","Saltator maxillosus Cabanis, 1851","-50.996626","-29.592332","Rio Grande do Sul","São Jacó","2018","8","OBS665134835"
"56","Saltator maxillosus Cabanis, 1851","-49.142459","-25.624572","Paraná","São Marcos, São José dos Pinhais","2018","9","OBS659066745"
"57","Saltator maxillosus Cabanis, 1851","-44.573214","-22.494028","Rio de Janeiro","Itatiaia National Park","2018","9","OBS661677267"
"58","Saltator maxillosus Cabanis, 1851","-44.573239","-22.493942","Rio de Janeiro","Itatiaia National Park","2018","9","OBS661672485"
"59","Saltator maxillosus Cabanis, 1851","-48.8279","-25.480672","Paraná","Morretes--área geral","2018","9","OBS653467918"
"60","Saltator maxillosus Cabanis, 1851","-46.038766","-22.863364","Minas Gerais","Monte Verde--área geral","2018","9","OBS662143630"
"61","Saltator maxillosus Cabanis, 1851","-45.642","-22.6797","São Paulo","São Bento do Sapucaí--Estrada do Baúzinho","2018","9","OBS659947508"
"62","Saltator maxillosus Cabanis, 1851","-42.585802","-22.346417","Rio de Janeiro",NA,"2018","10","18274926"
"63","Saltator maxillosus Cabanis, 1851","-52.905019","-28.504433","Rio Grande do Sul","Mato do Arlei","2018","10","OBS667647036"
"64","Saltator maxillosus Cabanis, 1851","-42.567215","-22.221734","Rio de Janeiro","Pico de Caledonia--Trilho Alto","2018","10","OBS665323956"
"65","Saltator maxillosus Cabanis, 1851","-44.756255","-22.373465","Minas Gerais","(-22.3735,-44.7563)","2018","11","OBS672640372"
"66","Saltator maxillosus Cabanis, 1851","-42.584816","-22.342365","Rio de Janeiro","Estrada ao Pico da Caledônia","2018","11","OBS678315023"
"67","Saltator maxillosus Cabanis, 1851","-44.737551","-22.359047","Minas Gerais","(-22.3590,-44.7376)","2018","11","OBS672638115"
"68","Saltator maxillosus Cabanis, 1851","-48.9062","-25.3331","Paraná","morning road walk","2018","11","OBS676437408"
"69","Saltator maxillosus Cabanis, 1851","-49.379522","-25.474196","Paraná","Curitiba--Parque do Passaúna","2018","11","OBS690936605"
"70","Saltator maxillosus Cabanis, 1851","-48.90626","-25.333134","Paraná","(-25.3331,-48.9063) Estrada da graciosa","2018","11","OBS685313236"
"71","Saltator maxillosus Cabanis, 1851","-44.8371","-23.171433","Rio de Janeiro","P4-1500","2018","11","OBS687474612"
"72","Saltator maxillosus Cabanis, 1851","-49.349832","-26.653127","Santa Catarina","Rio dos Cedros","2018","11","OBS675407566"
"73","Saltator maxillosus Cabanis, 1851","-49.222599","-25.525225","Paraná","Parque Náutico do Iguaçu","2018","12","OBS686363946"
"74","Saltator maxillosus Cabanis, 1851","-49.184155","-26.291058","Santa Catarina","Jaraguá do Sul -- Rio Manso","2018","12","OBS689651178"
"75","Saltator maxillosus Cabanis, 1851","-48.883354","-25.353999","Paraná","serra da graciosa","2018","12","OBS707762764"
"76","Saltator maxillosus Cabanis, 1851","-51.77953","-26.513438","Paraná","Palmas--Fazenda São Geraldo","2018","12","OBS684924170"
"77","Saltator maxillosus Cabanis, 1851","-51.76702","-26.638713","Santa Catarina","Água Doce--Fazenda do Salto","2018","12","OBS689850865"
"78","Saltator maxillosus Cabanis, 1851","-44.751598","-22.372346","Minas Gerais","Estrada Parque Itamonte","2018","12","OBS690598137"
"79","Saltator maxillosus Cabanis, 1851","-49.549112","-28.393354","Santa Catarina","Mirante da Serra do Rio do Rastro","2017","1","OBS461372505"
"80","Saltator maxillosus Cabanis, 1851","-49.883439","-25.549421","Paraná","Porto Amazonas","2017","2","OBS471218657"
"81","Saltator maxillosus Cabanis, 1851","-49.178787","-27.673837","Santa Catarina","Fazenda São Leonardo","2017","2","OBS463710034"
"82","Saltator maxillosus Cabanis, 1851","-49.832826","-28.011583","Santa Catarina","Urupema--Morro do Combate","2017","2","OBS473340868"
"83","Saltator maxillosus Cabanis, 1851","-51.795535","-28.759617","Rio Grande do Sul","Unnamed Road, Rio Grande do Sul, BR (-28,76, -51,796)","2017","2","OBS523017288"
"84","Saltator maxillosus Cabanis, 1851","-50.386768","-29.423851","Rio Grande do Sul","FLONA São Francisco de Paula","2017","2","OBS527629144"
"85","Saltator maxillosus Cabanis, 1851","-44.614899","-22.736117","São Paulo","São José do Barreiro--PN Serra da Bocaina","2017","3","OBS500973875"
"86","Saltator maxillosus Cabanis, 1851","-45.589828","-22.73724","São Paulo","Campos do Jordão--área geral","2017","3","OBS478414869"
"87","Saltator maxillosus Cabanis, 1851","-51.023351","-26.9984","Santa Catarina","A3 - LT Videira Fraiburgo Rodovia Das Lombadas - -26,999x-51,023","2017","3","OBS479148994"
"88","Saltator maxillosus Cabanis, 1851","-51.101014","-27.005784","Santa Catarina","BR-Santa Catarina-Videira - -27,006x-51,101 - 22/03/2017 07:20","2017","3","OBS523162618"
"89","Saltator maxillosus Cabanis, 1851","-51.026274","-27.000854","Santa Catarina","20-28 Rodovia das Lombadas, Santa Catarina, BR (-27,001, -51,026)","2017","3","OBS523162249"
"90","Saltator maxillosus Cabanis, 1851","-43.000059","-22.471875","Rio de Janeiro","PN Serra dos Orgaos","2017","3","OBS474384361"
"91","Saltator maxillosus Cabanis, 1851","-51.047088","-27.000829","Santa Catarina","A2 - LT VIdeira Fraiburgo - Santa Catarina-Videira-Unnamed Road","2017","3","OBS479149780"
"92","Saltator maxillosus Cabanis, 1851","-49.261481","-25.955693","Paraná","Tijucas do Sul - Trilha Serra Lagoinha","2017","3","OBS479774163"
"93","Saltator maxillosus Cabanis, 1851","-45.129048","-23.22996","São Paulo","Sítio Cotinga","2017","3","OBS474798452"
"94","Saltator maxillosus Cabanis, 1851","-49.853335","-27.929552","Santa Catarina","BR-SC-Urupema-88625 - -27,9296x-49,8533","2017","4","OBS492729323"
"95","Saltator maxillosus Cabanis, 1851","-49.856175","-27.930972","Santa Catarina","BR-SC-Urupema-88625 - -27,9310x-49,8562","2017","4","OBS492211327"
"96","Saltator maxillosus Cabanis, 1851","-49.934261","-27.951469","Santa Catarina","Tratadouro -27.951x-49.934","2017","4","OBS486593583"
"97","Saltator maxillosus Cabanis, 1851","-48.947177","-25.599224","Paraná","-25,599x-48,947 - 23 de abr de 2017 11:26","2017","4","OBS489222497"
"98","Saltator maxillosus Cabanis, 1851","-52.908304","-28.503018","Rio Grande do Sul","BR-Rio Grande do Sul-Não-Me-Toque - -28,503x-52,908 - 22 de abr de 2017 06:33","2017","4","OBS489038089"
"99","Saltator maxillosus Cabanis, 1851","-51.909941","-29.040076","Rio Grande do Sul","BR-Rio Grande do Sul-Vespasiano Correa - -29,04x-51,91 - 15/04/2017 18:13","2017","4","OBS486038795"
"100","Saltator maxillosus Cabanis, 1851","-49.884372","-27.960291","Santa Catarina","CTG Nordeste Urupemense","2017","4","OBS501080259"
"101","Saltator maxillosus Cabanis, 1851","-49.850847","-27.930345","Santa Catarina","BR-SC-Urupema-SC-112 - -27,9303x-49,8508","2017","4","OBS493236340"
"102","Saltator maxillosus Cabanis, 1851","-44.796072","-22.352963","Minas Gerais","Itamonte--RPPN Alto Montana","2017","4","OBS488823965"
"103","Saltator maxillosus Cabanis, 1851","-49.096849","-26.210742","Santa Catarina","-26,2107x-49,0968 - 23 de abr de 2017 08:52","2017","4","OBS500123581"
"104","Saltator maxillosus Cabanis, 1851","-44.759224","-22.374101","Minas Gerais","-22,3741x-44,7592 - 17 de mai de 2017 06:14","2017","5","OBS501260454"
"105","Saltator maxillosus Cabanis, 1851","-45.569363","-22.713044","São Paulo","Campos do Jordão - Morro do Elefante","2017","5","OBS623375047"
"106","Saltator maxillosus Cabanis, 1851","-45.366077","-22.538209","Minas Gerais","BR-Minas Gerais-Wenceslau Braz-126-656 Rodovia Juscelino Kubitscheck de Oliveira - -22,538x-45,366","2017","5","OBS495337662"
"107","Saltator maxillosus Cabanis, 1851","-49.53663","-28.007817","Santa Catarina","Urubici x Morro da Igreja ","2017","5","OBS586190069"
"108","Saltator maxillosus Cabanis, 1851","-49.856601","-27.924502","Santa Catarina","Urupema--Morro das Antenas","2017","5","OBS498564411"
"109","Saltator maxillosus Cabanis, 1851","-49.764786","-27.868012","Santa Catarina","Caminho para Urubici","2017","5","OBS494794758"
"110","Saltator maxillosus Cabanis, 1851","-49.895053","-27.967872","Santa Catarina","Estrada Bossoroca","2017","5","OBS498636283"
"111","Saltator maxillosus Cabanis, 1851","-45.354895","-22.525733","Minas Gerais","BR-Minas Gerais-Wenceslau Braz-26 Rodovia Juscelino Kubitscheck de Oliveira - -22,526x-45,355","2017","5","OBS505755215"
"112","Saltator maxillosus Cabanis, 1851","-44.592969","-22.664314","São Paulo","Serra da Bocaina","2017","5","OBS510226381"
"113","Saltator maxillosus Cabanis, 1851","-49.021327","-26.514633","Santa Catarina","Guaramirim - SC - Pedreira","2017","6","OBS514145335"
"114","Saltator maxillosus Cabanis, 1851","-42.585135","-22.343782","Rio de Janeiro","BR-Rio de Janeiro-Nova Friburgo - -22,344x-42,585 - 11/06/2017 1:44 PM","2017","6","OBS510231057"
"115","Saltator maxillosus Cabanis, 1851","-49.058475","-25.566219","Paraná","Várzea na Estrada do Curralinho","2017","6","OBS511533638"
"116","Saltator maxillosus Cabanis, 1851","-42.586375","-22.345998","Rio de Janeiro","Pico da Caledônia - Nova Friburgo - RJ -22,346x-42,586 - 18/06/2017 08:30","2017","6","OBS512321463"
"117","Saltator maxillosus Cabanis, 1851","-49.82248","-25.429435","Paraná","Casa-Witmarsum-BR-Paraná-Palmeira-Avenida Presidente Ernesto Geisel - -25,429x-49,822","2017","6","OBS512056183"
"118","Saltator maxillosus Cabanis, 1851","-49.057151","-25.592745","Paraná","Borda do Campo do São Sebastião","2017","6","OBS510364821"
"119","Saltator maxillosus Cabanis, 1851","-49.933279","-27.950279","Santa Catarina","Pousada Rio dos Touros","2017","6","OBS656863657"
"120","Saltator maxillosus Cabanis, 1851","-42.5869","-22.3459",NA,"Pico da Caledônia, Nova Friburgo, RJ","2017","6","471126@XC"
"121","Saltator maxillosus Cabanis, 1851","-44.73","-22.33","Minas Gerais","Itamonte -- Pousada dos Lobos","2017","7","OBS543097543"
"122","Saltator maxillosus Cabanis, 1851","-52.905855","-28.50428","Rio Grande do Sul","-28,504x-52,906 - 12 de jul de 2017 06:42","2017","7","OBS518185434"
"123","Saltator maxillosus Cabanis, 1851","-49.894516","-25.545539","Paraná","Porto Amazonas","2017","7","OBS518995835"
"124","Saltator maxillosus Cabanis, 1851","-44.628469","-22.369822","Rio de Janeiro","Itatiaia National Park","2017","7","OBS526045883"
"125","Saltator maxillosus Cabanis, 1851","-50.949571","-29.568584","Rio Grande do Sul","Sapiranga--Alto Ferrabraz","2017","7","OBS532267863"
"126","Saltator maxillosus Cabanis, 1851","-44.609116","-22.435974","Rio de Janeiro","PN do Itatiaia--Trilha dos Três Picos","2017","8","OBS558616774"
"127","Saltator maxillosus Cabanis, 1851","-44.724168","-22.364475","Rio de Janeiro","BR-485, Resende BR-RJ (-22.3645,-44.7242)","2017","8","OBS525843525"
"128","Saltator maxillosus Cabanis, 1851","-44.759633","-22.37483","Minas Gerais","Itamonte, Minas Gerais, BR (-22,375, -44,76)","2017","8","OBS525297071"
"129","Saltator maxillosus Cabanis, 1851","-45.309404","-22.502901","Minas Gerais","Delfim Moreira, Minas Gerais, BR (-22,503, -45,309)","2017","8","OBS526155397"
"130","Saltator maxillosus Cabanis, 1851","-49.17165","-25.627877","Paraná","Rio Miringuava, Campo Largo da Roseira, São José dos Pinhais, PR, BR","2017","8","OBS527816007"
"131","Saltator maxillosus Cabanis, 1851","-45.294171","-22.50699","Minas Gerais","MG-350, Minas Gerais, BR (-22,507, -45,294)","2017","8","OBS526504452"
"132","Saltator maxillosus Cabanis, 1851","-44.747346","-22.369439","Minas Gerais","BR-485, Itamonte BR-MG (-22.3694,-44.7473)","2017","8","OBS533183172"
"133","Saltator maxillosus Cabanis, 1851","-45.481944","-22.689444","São Paulo","PE Campos do Jordão (Horto Florestal)","2017","9","OBS546329626"
"134","Saltator maxillosus Cabanis, 1851","-44.725223","-22.365088","Rio de Janeiro","Unnamed Road, Minas Gerais, BR (-22,365, -44,725)","2017","9","OBS530739063"
"135","Saltator maxillosus Cabanis, 1851","-50.174135","-29.48111","Rio Grande do Sul","95400, São Francisco de Paula BR-RS (-29,4811,-50,1741)","2017","9","OBS537550748"
"136","Saltator maxillosus Cabanis, 1851","-44.740896","-22.367758","Minas Gerais","Parque Nacional do Itatiaia, parte alta, Itamonte,BR (-22,368, -44,741)","2017","9","OBS530739366"
"137","Saltator maxillosus Cabanis, 1851","-42.57951","-22.340232","Rio de Janeiro","Pico da Caledonia","2017","9","OBS545641460"
"138","Saltator maxillosus Cabanis, 1851","-45.491032","-22.693805","São Paulo","PE - dos Mananciais de Campos","2017","9","OBS556589235"
"139","Saltator maxillosus Cabanis, 1851","-44.553767","-22.299547","Minas Gerais","Bocaina de Minas--Trillha da Cachoeira do Alcantilado","2017","9","OBS688794743"
"140","Saltator maxillosus Cabanis, 1851","-50.180833","-29.368333","Rio Grande do Sul","Itati--BR 486 (paradouro Galpão Crioulo)","2017","9","OBS540300821"
"141","Saltator maxillosus Cabanis, 1851","-49.182511","-25.709285","Paraná","Stud Don Juan","2017","9","OBS533670398"
"142","Saltator maxillosus Cabanis, 1851","-42.49221","-22.37579","Rio de Janeiro","Macaé de Cima","2017","10","OBS545282338"
"143","Saltator maxillosus Cabanis, 1851","-42.558373","-22.344507","Rio de Janeiro","Torres SBT Road, Caledonia","2017","10","OBS547203351"
"144","Saltator maxillosus Cabanis, 1851","-49.479911","-26.897693","Santa Catarina","Benedito Novo--Zinco","2017","10","OBS545489569"
"145","Saltator maxillosus Cabanis, 1851","-50.212927","-29.486154","Rio Grande do Sul","São Francisco de Paula--CPCN Pro Mata (Near Entrance), PUCRS","2017","10","OBS540773774"
"146","Saltator maxillosus Cabanis, 1851","-49.462177","-26.866707","Santa Catarina","Sítio Begalke","2017","10","OBS542061958"
"147","Saltator maxillosus Cabanis, 1851","-45.357584","-22.61571","Minas Gerais","Delfim Moreira--Fazenda da Onça","2017","11","OBS547348353"
"148","Saltator maxillosus Cabanis, 1851","-52.851266","-28.074517","Rio Grande do Sul","Estrada para Igrejinha","2017","11","OBS552950199"
"149","Saltator maxillosus Cabanis, 1851","-49.015442","-25.385035","Paraná",NA,"2017","11","27581381"
"150","Saltator maxillosus Cabanis, 1851","-49.438721","-27.899853","Santa Catarina","RPPN Grande Floresta das Araucárias, Faz. Reunidas Campos Novos","2017","11","OBS550030881"
"151","Saltator maxillosus Cabanis, 1851","-49.095703","-26.209917","Santa Catarina","Estrada Rio do Júlio, Santa Catarina, BR (-26,21, -49,096)","2017","11","OBS548886793"
"152","Saltator maxillosus Cabanis, 1851","-57.484524","-30.198405","Rio Grande do Sul","PE do Espinilho","2017","11","OBS555002114"
"153","Saltator maxillosus Cabanis, 1851","-44.775577","-22.2954","Minas Gerais","Colina","2017","12","OBS562260524"
"154","Saltator maxillosus Cabanis, 1851","-51.986318","-26.512746","Paraná","IFPR--Campus Palmas","2017","12","OBS555001400"
"155","Saltator maxillosus Cabanis, 1851","-49.871613","-28.515089","Rio Grande do Sul","Sítio dos Irmãos, Faxinal Preto, São José dos Ausentes","2016","1","OBS368036012"
"156","Saltator maxillosus Cabanis, 1851","-48.87003","-27.821945","Santa Catarina","PE Serra do Tabuleiro, SC","2016","1","OBS441269689"
"157","Saltator maxillosus Cabanis, 1851","-49.488079","-28.0605","Santa Catarina","BR-Santa Catarina-Urubici - -28,061x-49,488 - 23/01/2016 06:18","2016","1","OBS368657532"
"158","Saltator maxillosus Cabanis, 1851","-45.469478","-22.710709","São Paulo","BR-São Paulo-Campos do Jordão-Unnamed Rd - -22,711x-45,469 - 13/02/2016 9:21 AM","2016","2","OBS372979038"
"159","Saltator maxillosus Cabanis, 1851","-49.851377","-27.929713","Santa Catarina","Urupema, Acesso ao Morro das Antenas","2016","2","OBS375130755"
"160","Saltator maxillosus Cabanis, 1851","-49.636667","-28.160833","Santa Catarina","PN São Joaquim--Grade PPBio, S3500","2016","2","OBS380298817"
"161","Saltator maxillosus Cabanis, 1851","-45.167116","-23.233491","São Paulo","BR-SP-São Luís do Paraitinga-12140 - -23.2335x-45.1671","2016","2","OBS375168934"
"162","Saltator maxillosus Cabanis, 1851","-51.556005","-27.000198","Santa Catarina","Água Doce, SC","2016","2","OBS378787865"
"163","Saltator maxillosus Cabanis, 1851","-50.0113","-29.1829",NA,"Praia Grande, Praia Grande, Santa Catarina","2016","3","308653@XC"
"164","Saltator maxillosus Cabanis, 1851","-44.606702","-22.326729","Rio de Janeiro","Itatiaia--Maromba","2016","3","OBS703869987"
"165","Saltator maxillosus Cabanis, 1851","-49.853648","-27.929581","Santa Catarina","Trilha da cascata congelada","2016","4","OBS394273341"
"166","Saltator maxillosus Cabanis, 1851","-52.19686","-29.272746","Rio Grande do Sul","Tamanduá","2016","4","OBS549343733"
"167","Saltator maxillosus Cabanis, 1851","-49.934247","-27.951521","Santa Catarina","Pousada rio dos touros","2016","4","OBS393859832"
"168","Saltator maxillosus Cabanis, 1851","-54.455452","-25.683303","Misiones","PN Iguazú Área Cataratas","2016","4","OBS401672509"
"169","Saltator maxillosus Cabanis, 1851","-49.866269","-27.967359","Santa Catarina","BR-Santa Catarina-Urupema-Estrada Urupema - -27,967x-49,866","2016","4","OBS440562193"
"170","Saltator maxillosus Cabanis, 1851","-49.176188","-27.679092","Santa Catarina","Reserva Rio das Furnas","2016","4","OBS395535604"
"171","Saltator maxillosus Cabanis, 1851","-45.505657","-22.694156","São Paulo","BR-São Paulo-Campos do Jordão ","2016","5","OBS402864803"
"172","Saltator maxillosus Cabanis, 1851","-49.333688","-26.591022","Santa Catarina","Rio dos Cedros -- Recanto Bonito por Natureza","2016","5","OBS421697601"
"173","Saltator maxillosus Cabanis, 1851","-49.014486","-27.689191","Santa Catarina","Sítio Faxinal das Águas","2016","5","OBS403330107"
"174","Saltator maxillosus Cabanis, 1851","-49.011018","-27.687746","Santa Catarina","Sítio Bruggemann","2016","5","OBS403688790"
"175","Saltator maxillosus Cabanis, 1851","-49.513521","-28.241388","Santa Catarina","BR-Santa Catarina-Orleans - -28,241x-49,514 - 29/06/2016 05:43","2016","6","OBS415443859"
"176","Saltator maxillosus Cabanis, 1851","-44.696937","-22.229044","Minas Gerais","RPPN François Robert Arthur - Itamonte / MG","2016","6","OBS421278102"
"177","Saltator maxillosus Cabanis, 1851","-49.934589","-28.803974","Santa Catarina","Est. Gasoduto, Serra da Rocinha, Timbé do Sul","2016","6","OBS414340615"
"178","Saltator maxillosus Cabanis, 1851","-45.25155","-22.575656","Minas Gerais","Delfim Moreira--Barreira","2016","7","OBS417565053"
"179","Saltator maxillosus Cabanis, 1851","-44.720471","-22.365039","Rio de Janeiro","Resende PNI Parte Alta","2016","7","OBS419395028"
"180","Saltator maxillosus Cabanis, 1851","-52.874858","-28.079023","Rio Grande do Sul","Reserva Valle Azul","2016","7","OBS419706094"
"181","Saltator maxillosus Cabanis, 1851","-50.014869","-29.181238","Santa Catarina","-29,1812x-50,0149 - 13/08/2016 16:56","2016","8","OBS423659546"
"182","Saltator maxillosus Cabanis, 1851","-48.862172","-27.885445","Santa Catarina","PE da Serra do Tabuleiro--Trilha do Campo da Bracatinga","2016","9","OBS428497446"
"183","Saltator maxillosus Cabanis, 1851","-49.376249","-26.551526","Santa Catarina","Rio dos Cedros -- Cachoeira Formosa","2016","9","OBS428935184"
"184","Saltator maxillosus Cabanis, 1851","-51.351084","-29.483237","Rio Grande do Sul","Bom Princípio","2016","10","OBS438382380"
"185","Saltator maxillosus Cabanis, 1851","-44.525109","-22.400098","Rio de Janeiro","Serrinha do Alambari - Resende RJ","2016","10","OBS435147763"
"186","Saltator maxillosus Cabanis, 1851","-49.295228","-25.586642","Paraná","São José dos Pinhais","2016","10","OBS438006335"
"187","Saltator maxillosus Cabanis, 1851","-49.176629","-27.677979","Santa Catarina","Reserva Rio das Furnas","2016","10","OBS438040513"
"188","Saltator maxillosus Cabanis, 1851","-49.620398","-28.639615","Santa Catarina","BR-Santa Catarina-Nova Veneza - -28,64x-49,62 - 28/10/2016 07:44","2016","10","OBS458160675"
"189","Saltator maxillosus Cabanis, 1851","-45.263683","-22.577759","Minas Gerais","-22,578x-45,264 - Fazenda Bartira 01/10/2016 18:12","2016","10","OBS433398527"
"190","Saltator maxillosus Cabanis, 1851","-48.412757","-24.26821","São Paulo","PE Intervales","2016","10","OBS439702729"
"191","Saltator maxillosus Cabanis, 1851","-45.969522","-22.878271","São Paulo","São Francisco Xavier--Serra dos Poncianos e trilhas","2016","10","OBS437852011"
"192","Saltator maxillosus Cabanis, 1851","-45.655682","-22.684747","São Paulo","Monumento Natural Pedra do Baú","2016","10","OBS619578819"
"193","Saltator maxillosus Cabanis, 1851","-48.919373","-25.588124","Paraná","Morretes--Alto BR 277","2016","11","OBS445761239"
"194","Saltator maxillosus Cabanis, 1851","-43.292575","-22.464748","Rio de Janeiro","BR-Rio de Janeiro-Petrópolis-Unnamed Road - -22,465x-43,293","2016","11","OBS446118196"
"195","Saltator maxillosus Cabanis, 1851","-49.043561","-25.55176","Paraná","estrada da roseira","2016","11","OBS445188231"
"196","Saltator maxillosus Cabanis, 1851","-45.426492","-22.649939","São Paulo","PE Campos do Jordão--Divisa com MG","2016","11","OBS444886564"
"197","Saltator maxillosus Cabanis, 1851","-49.285047","-27.997192","Santa Catarina","Santa Bárbara (SC)","2016","11","OBS443319877"
"198","Saltator maxillosus Cabanis, 1851","-44.644083","-22.08323","Minas Gerais","Vale do Matutu","2016","12","OBS461261703"
"199","Saltator maxillosus Cabanis, 1851","-45.615964","-22.769059","São Paulo","Trilha Zig Zag","2016","12","OBS453742788"
"200","Saltator maxillosus Cabanis, 1851","-49.04578","-25.648258","Paraná","Rua Padre Stanislaw Turbankski, São José dos Pinhais, PR, BR","2016","12","OBS447777478"
"201","Saltator maxillosus Cabanis, 1851","-45.6216","-22.7786",NA,"Campos do Jordão, São Paulo","2016","12","348883@XC"
"202","Saltator maxillosus Cabanis, 1851","-49.61887","-28.632365","Santa Catarina","BR-Santa Catarina-Nova Veneza - -28,632x-49,619 - 16/12/2016 20:35","2016","12","OBS482837523"
"203","Saltator maxillosus Cabanis, 1851","-45.93358","-23.071677","São Paulo","PNM Augusto Ruschi","2016","12","OBS451778710"
"204","Saltator maxillosus Cabanis, 1851","-49.641667","-28.153056","Santa Catarina","PN São Joaquim--Grade PPBio, N3500","2015","2","OBS322737790"
"205","Saltator maxillosus Cabanis, 1851","-49.618889","-28.1525","Santa Catarina","PN São Joaquim--Grade PPBio, S1500","2015","2","OBS322734384"
"206","Saltator maxillosus Cabanis, 1851","-49.934105","-27.951378",NA,"Eco Pousada Rio dos Touros und Umgebung","2015","2",NA
"207","Saltator maxillosus Cabanis, 1851","-49.308003","-25.426273","Paraná","Parque Barigui","2015","4","OBS309862184"
"208","Saltator maxillosus Cabanis, 1851","-49.611726","-28.072132","Santa Catarina","Santa Barbara","2015","4","OBS321330483"
"209","Saltator maxillosus Cabanis, 1851","-53.691902","-28.374259","Rio Grande do Sul","Mato da Capela","2015","4","OBS317089691"
"210","Saltator maxillosus Cabanis, 1851","-49.875483","-27.957335","Santa Catarina","Urupema","2015","4","OBS318017645"
"211","Saltator maxillosus Cabanis, 1851","-44.633009","-22.685999","São Paulo","Subida da Serra da Bocaina, kms 08 a 20 da SP 221","2015","5","OBS322831299"
"212","Saltator maxillosus Cabanis, 1851","-49.35246","-27.70787","Santa Catarina","Urupema - Estrada Velha","2015","5","OBS318959360"
"213","Saltator maxillosus Cabanis, 1851","-51.512607","-27.61649","Rio Grande do Sul","Parque Estadual Espigão Alto","2015","5","OBS317031910"
"214","Saltator maxillosus Cabanis, 1851","-51.02286","-29.64527","Rio Grande do Sul","Centenário, Sapiranga","2015","5","OBS318532921"
"215","Saltator maxillosus Cabanis, 1851","-45.5524","-22.71385","São Paulo","Bosque do silêncio","2015","5","OBS326465564"
"216","Saltator maxillosus Cabanis, 1851","-49.327751","-26.594849","Santa Catarina","Rio dos Cedros/SC - Rio Bonito - -26.5948x-49.3278 - 29/05/2015 09:14","2015","5","OBS323818842"
"217","Saltator maxillosus Cabanis, 1851","-49.85802","-27.97731","Santa Catarina","Urupema - SC, Estrada Urupema","2015","5","OBS320266126"
"218","Saltator maxillosus Cabanis, 1851","-46.035869","-22.872537","Minas Gerais","Monte Verde - Hotel Cabeça de Boi e arredores","2015","5","OBS322642343"
"219","Saltator maxillosus Cabanis, 1851","-49.85774","-27.977512","Santa Catarina","Urupema, Estrada Geral Urupema","2015","5","OBS320272764"
"220","Saltator maxillosus Cabanis, 1851","-44.619593","-22.717306","São Paulo","São José do Barreiro -- Pousada Campos da Bocaina","2015","5","OBS322870199"
"221","Saltator maxillosus Cabanis, 1851","-53.613531","-28.536373","Rio Grande do Sul","Propriedade Lauro Stella","2015","5","OBS316220505"
"222","Saltator maxillosus Cabanis, 1851","-49.732833","-27.221558","Santa Catarina","Laurentino","2015","5","OBS317763339"
"223","Saltator maxillosus Cabanis, 1851","-49.91271","-27.99898","Santa Catarina","Urupema, Bossoroca","2015","5","OBS320273922"
"224","Saltator maxillosus Cabanis, 1851","-49.2921","-27.475","Santa Catarina","Bom Retiro","2015","5","OBS318178705"
"225","Saltator maxillosus Cabanis, 1851","-52.07659","-29.288556","Rio Grande do Sul","Lagoa do Herval, Travesseiro, RS","2015","5","OBS317566063"
"226","Saltator maxillosus Cabanis, 1851","-49.93461","-27.95198","Santa Catarina","Urupema - SC - Ecopousada Rio dos Touros","2015","5","OBS320266384"
"227","Saltator maxillosus Cabanis, 1851","-49.088612","-25.308024","Paraná","viveiro mudas myrtlau 25.3080x-49.0886 - 23/05/2015 21:05","2015","5","OBS322355263"
"228","Saltator maxillosus Cabanis, 1851","-53.313834","-27.901405","Rio Grande do Sul","Palmeira das Missões","2015","5","OBS318309839"
"229","Saltator maxillosus Cabanis, 1851","-50.181019","-29.218147","Rio Grande do Sul","Cambará do Sul -- Pousada Estância do Cambará","2015","5","OBS318785310"
"230","Saltator maxillosus Cabanis, 1851","-44.74929","-22.37317","Minas Gerais","Agulhas Negras Road","2015","6","OBS328224462"
"231","Saltator maxillosus Cabanis, 1851","-44.60912","-22.43597","Rio de Janeiro","PN de Itatiaia -- Trilha dos TrÃªs Picos","2015","6","OBS328224666"
"232","Saltator maxillosus Cabanis, 1851","-51.991097","-26.799749","Santa Catarina","Passos Maia--PN das Araucárias","2015","6","OBS656547706"
"233","Saltator maxillosus Cabanis, 1851","-44.759898","-22.374987","Minas Gerais","Agulhas Negras Road (first km)","2015","6","OBS328352351"
"234","Saltator maxillosus Cabanis, 1851","-44.71252","-22.367923","Minas Gerais","Agulhas Negras Road (kms 8-10","2015","6","OBS328352049"
"235","Saltator maxillosus Cabanis, 1851","-48.906659","-25.333151","Paraná","Graciosa Road","2015","6","OBS331257080"
"236","Saltator maxillosus Cabanis, 1851","-45.477862","-22.703474","São Paulo","Campos do Jordão - Estrada do Horto","2015","6","OBS325121276"
"237","Saltator maxillosus Cabanis, 1851","-44.615204","-22.432516","Rio de Janeiro","Itatiaia","2015","6","OBS331507902"
"238","Saltator maxillosus Cabanis, 1851","-54.20981","-26.86867","Misiones","Reserva de Biosfera Yaboti","2015","7","OBS354131844"
"239","Saltator maxillosus Cabanis, 1851","-44.614956","-22.431925",NA,"Itatiaia Parque Nacional (Agulhas Negras area), Hotel do Ypé und Umgebung","2015","8",NA
"240","Saltator maxillosus Cabanis, 1851","-44.83233","-23.175714","Rio de Janeiro","Estrada Paraty-Cunha (RJ-165)","2015","8","OBS346566802"
"241","Saltator maxillosus Cabanis, 1851","-44.75152","-22.385555","Rio de Janeiro","BR-RJ-Road354 Highlands","2015","8","OBS339072069"
"242","Saltator maxillosus Cabanis, 1851","-49.200394","-26.658974","Santa Catarina","Morro Schmidt - Pomerode/SC. - -26.6590x-49.2004 - 30/05/2015 15:13","2015","9","OBS344001363"
"243","Saltator maxillosus Cabanis, 1851","-44.758912","-22.374053","Minas Gerais","Estrada para as Agulhas Negras - PARNA do Itatiaia","2015","10","OBS347568580"
"244","Saltator maxillosus Cabanis, 1851","-45.512924","-22.736846","São Paulo","Parque Estadual Campos do Jordão","2015","10","OBS354450122"
"245","Saltator maxillosus Cabanis, 1851","-49.67773","-26.713605","Santa Catarina","REBIO Estadual do Sassafrás","2015","10","OBS348149202"
"246","Saltator maxillosus Cabanis, 1851","-49.386236","-28.14942","Santa Catarina","PE Serra Furada--sede norte","2015","11","OBS354975263"
"247","Saltator maxillosus Cabanis, 1851","-45.547814","-22.697575","São Paulo","Campos do Jordao","2015","11","OBS356099587"
"248","Saltator maxillosus Cabanis, 1851","-49.19697","-25.530143","Paraná","Sao Jose dos Pinhais","2015","11","OBS356766326"
"249","Saltator maxillosus Cabanis, 1851","-49.405947","-27.897956","Santa Catarina","RPPN Grande Floresta das Araucárias","2015","11","OBS355212839"
"250","Saltator maxillosus Cabanis, 1851","-50.69109","-28.458573","Rio Grande do Sul","BANHADI AGUA BRANCA","2015","12","OBS359197436"
"251","Saltator maxillosus Cabanis, 1851","-50.823117","-27.49049","Santa Catarina","BR-Santa Catarina-Vargem - -27,49x-50,823 - 16/12/2015 06:08","2015","12","OBS359387975"
"252","Saltator maxillosus Cabanis, 1851","-51.35799","-26.403239","Paraná",NA,"2014","5","4445414"
"253","Saltator maxillosus Cabanis, 1851","-42.642145","-22.444509","Rio de Janeiro","Serra dos Tucanos Lodge","2014","5","OBS316056135"
"254","Saltator maxillosus Cabanis, 1851","-44.615079","-22.431983","Rio de Janeiro","PN de Itatiaia--Hotel do Ypê","2014","8","OBS448146575"
"255","Saltator maxillosus Cabanis, 1851","-50.173787","-29.480109","Rio Grande do Sul","Pró-Mata","2014","11","OBS382159572"
"256","Saltator maxillosus Cabanis, 1851","-45.392588","-22.617436","Minas Gerais","Delfim Moreira--Charco","2014","12","OBS301216930"
"257","Saltator maxillosus Cabanis, 1851","-43.89588","-21.7103","Minas Gerais","Brazil - Ibitiboca","2013","1","OBS587496827"
"258","Saltator maxillosus Cabanis, 1851","-43.01572","-22.45321","Rio de Janeiro","Brazil - Serra Dos Orgaos","2013","1","OBS587497085"
"259","Saltator maxillosus Cabanis, 1851","-52.374959","-27.270041","Santa Catarina","Itá","2013","2","OBS482689928"
"260","Saltator maxillosus Cabanis, 1851","-50.500545","-27.988566","Santa Catarina","Fazenda Pai João","2013","2","OBS329574304"
"261","Saltator maxillosus Cabanis, 1851","-45.583804","-22.761382","São Paulo","Campos do Jordão--Colônia do Mackenzie","2013","3","OBS446568730"
"262","Saltator maxillosus Cabanis, 1851","-50.833139","-27.998342","Santa Catarina","Campo Belo do Sul","2013","3","OBS345547045"
"263","Saltator maxillosus Cabanis, 1851","-50.674181","-28.388909","Rio Grande do Sul","Estrada de chão","2013","3","OBS345540949"
"264","Saltator maxillosus Cabanis, 1851","-49.365349","-28.057893","Santa Catarina","Serra do Corvo Branco","2013","4","OBS618348733"
"265","Saltator maxillosus Cabanis, 1851","-42.560821","-22.218913","Rio de Janeiro","Pico de Caledonia -- Trilha Baixo","2013","7","OBS364650068"
"266","Saltator maxillosus Cabanis, 1851","-50.17","-29.477","Rio Grande do Sul","São Francisco de Paula; Centro de Pesquisas e Conservação da Natureza Pró-Mata","2013","9","2cc8ebf6-3e0a-490b-b044-abceaa6c5213"
"267","Saltator maxillosus Cabanis, 1851","-49.946594","-28.312844","Santa Catarina","Near Sao Joaquim,sc, brazil","2013","11","OBS219009913"
"268","Saltator maxillosus Cabanis, 1851","-44.740663","-22.368095","Minas Gerais","PN Itatiaia - Trilha alta","2012","1","OBS455970211"
"269","Saltator maxillosus Cabanis, 1851","-45.4896","-22.6895",NA,"Campos do Jordão, São Paulo","2012","1","118649@XC"
"270","Saltator maxillosus Cabanis, 1851","-51.6787","-29.0071",NA,"Cotiporã, Rio Grande do Sul","2012","7","176470@XC"
"271","Saltator maxillosus Cabanis, 1851","-44.67491","-22.388292","Rio de Janeiro","Itatiaia NP, Rio, BR","2012","8","OBS185270568"
"272","Saltator maxillosus Cabanis, 1851","-44.711094","-22.456383","Rio de Janeiro","Itatiaia--snipe valley farm","2012","9","OBS263735198"
"273","Saltator maxillosus Cabanis, 1851","-52.636785","-27.25936","Santa Catarina","Mata ciliar","2012","9","OBS329579798"
"274","Saltator maxillosus Cabanis, 1851","-49.870141","-28.229565","Santa Catarina","Snow Valley--São Joaquim","2012","10","OBS441049245"
"275","Saltator maxillosus Cabanis, 1851","-44.7428","-22.33249","Minas Gerais","Brazil - Agulhos Negros Rd","2012","12","OBS174907306"
"276","Saltator maxillosus Cabanis, 1851","-42.772556","-22.452832","Rio de Janeiro","Reserva Ecológica de Guapiacu--wetlands","2011","3","OBS416632288"
"277","Saltator maxillosus Cabanis, 1851","-50.078945","-29.159657","Santa Catarina","PN Aparados da Serra","2011","4","OBS117754068"
"278","Saltator maxillosus Cabanis, 1851","-49.997406","-29.077776","Rio Grande do Sul","Serra Geral","2011","4","OBS116612531"
"279","Saltator maxillosus Cabanis, 1851","-45.617335","-22.731725","São Paulo","Campos do Jordão - Pousada 3 Pinheiros","2011","4","OBS630341278"
"280","Saltator maxillosus Cabanis, 1851","-45.164696","-23.319193","São Paulo","Reserva Guainumbi","2011","5","OBS294236460"
"281","Saltator maxillosus Cabanis, 1851","-45.617573","-22.731639","São Paulo","Pousada 3 Pinheiros","2011","6","OBS180823088"
"282","Saltator maxillosus Cabanis, 1851","-45.122188","-23.357546","São Paulo","Serra Trail","2011","7","OBS180827112"
"283","Saltator maxillosus Cabanis, 1851","-42.710295","-22.486468","Rio de Janeiro","guapi assu bird lodge","2011","9","OBS184044882"
"284","Saltator maxillosus Cabanis, 1851","-44.762931","-22.375678","Minas Gerais","Hotel São Gotardo","2011","9","OBS636908842"
"285","Saltator maxillosus Cabanis, 1851","-45.144196","-23.354839","São Paulo","ubatuba","2011","10","OBS207482428"
"286","Saltator maxillosus Cabanis, 1851","-42.481962","-22.381488","Rio de Janeiro","Macae de Cima","2011","10","OBS493473644"
"287","Saltator maxillosus Cabanis, 1851","-54.006644","-25.831641","Misiones",NA,"2011","11","318566"
"288","Saltator maxillosus Cabanis, 1851","-45.58279","-22.70482","São Paulo","Campos back road.","2011","12","OBS180826340"
"289","Saltator maxillosus Cabanis, 1851","-42.564468","-22.227455","Rio de Janeiro","Pico de Caledonia trip","2010","3","OBS89683523"
"290","Saltator maxillosus Cabanis, 1851","-49.570532","-27.870489","Santa Catarina","Curucaca Private Reserve","2010","6","OBS269809028"
"291","Saltator maxillosus Cabanis, 1851","-49.647284","-27.948045","Santa Catarina","Estalagem Villa da Montanha, Urubici","2010","7","OBS269814911"
"292","Saltator maxillosus Cabanis, 1851","-45.631826","-22.723584","São Paulo","Pousada Palácio Monterei","2010","8","OBS97846489"
"293","Saltator maxillosus Cabanis, 1851","-45.656927","-22.685047","São Paulo","Pedra do Bau","2010","8","OBS542048421"
"294","Saltator maxillosus Cabanis, 1851","-50.86815","-27.997348","Santa Catarina","Campo Belo do Sul -- Florestal Gateados","2010","8","OBS473488292"
"295","Saltator maxillosus Cabanis, 1851","-45.615","-22.777","São Paulo","Vista Chinesa near Campo do Jordeo","2010","8","OBS98952856"
"296","Saltator maxillosus Cabanis, 1851","-51.182075","-27.568079","Santa Catarina","Parque Estadual do Rio Canoas","2010","8","OBS473957227"
"297","Saltator maxillosus Cabanis, 1851","-50.83417","-28.032377","Santa Catarina","Campo Belo do Sul — RPPN Emilio Einsfeld Filho","2010","8","OBS474132034"
"298","Saltator maxillosus Cabanis, 1851","-51.347743","-27.579274","Santa Catarina","Campos Novos — Ecruzilhada","2010","9","OBS473957360"
"299","Saltator maxillosus Cabanis, 1851","-51.255689","-27.644726","Santa Catarina","Celso Ramos","2010","9","OBS473957493"
"300","Saltator maxillosus Cabanis, 1851","-43.212919","-22.956415","Rio de Janeiro","Rio de Janeiro--Parque Lage trail up to Corcovado, down along rd","2010","10","OBS270115231"
"301","Saltator maxillosus Cabanis, 1851","-53.108833","-30.915474","Rio Grande do Sul","Santana da Boa Vista","2010","11","OBS113162692"
"302","Saltator maxillosus Cabanis, 1851","-51.9031","-26.8131","Santa Catarina","PARNA das Araucárias - Poço Verde","2009","5","OBS473897307"
"303","Saltator maxillosus Cabanis, 1851","-52.592985","-27.242344","Santa Catarina","Chapecó -- Foz do Rio Monte Alegre","2009","5","OBS473405917"
"304","Saltator maxillosus Cabanis, 1851","-51.9912","-26.8359","Santa Catarina","PARNA das Araucárias - Caratuva","2009","5","OBS473897455"
"305","Saltator maxillosus Cabanis, 1851","-51.8189","-26.7987","Santa Catarina","PARNA das Araucárias - Vila Adami","2009","5","OBS473897371"
"306","Saltator maxillosus Cabanis, 1851","-42.550886","-22.38","Rio de Janeiro","Serra dos Tucanos--Trilho Bamboo","2009","7","OBS181115925"
"307","Saltator maxillosus Cabanis, 1851","-44.68689","-22.362268","Minas Gerais","Agulhas Negras","2009","11","OBS78414002"
"308","Saltator maxillosus Cabanis, 1851","-49.6756","-26.7117",NA,"Gleba maior Reserva Biológica Estadual do Sassafrás, Doutor Pedrinho, Santa Catarina","2008","7","24533@XC"
"309","Saltator maxillosus Cabanis, 1851","-44.638266","-22.396588","Rio de Janeiro","Parque Nacional do Itatiaia","2008","8","OBS311132250"
"310","Saltator maxillosus Cabanis, 1851","-42.770932","-22.450948","Rio de Janeiro","Reserva Ecológica de Guapiaçu (REGUA)","2008","10","OBS481980896"
"311","Saltator maxillosus Cabanis, 1851","-43.6075","-19.3539","Minas Gerais","PN Serra do Cipó","2008","10","OBS482458272"
"312","Saltator maxillosus Cabanis, 1851","-44.61993","-22.42904","Rio de Janeiro","PN do Itatiaia--Piscina do Maromba Trail","2008","12","OBS678528654"
"313","Saltator maxillosus Cabanis, 1851","-51.257289","-26.624446","Paraná","General Carneiro — Reserva Paisagem Araucária","2007","2","OBS473707965"
"314","Saltator maxillosus Cabanis, 1851","-42.557208","-22.375929","Rio de Janeiro","Serra dos Tucanos--Trilho Cedae","2007","9","OBS711008468"
"315","Saltator maxillosus Cabanis, 1851","-48.320585","-18.698895","Minas Gerais","Marcio Miguel Marconi, Rio Araguari","2006","2","OBS457864154"
"316","Saltator maxillosus Cabanis, 1851","-42.514883","-22.317018","Rio de Janeiro","Nova Friburgo Brazil","2005","4","OBS174430427"
"317","Saltator maxillosus Cabanis, 1851","-44.597005","-22.403926","Rio de Janeiro","Itatiaia NP","2005","7","OBS708750655"
"318","Saltator maxillosus Cabanis, 1851","-44.632692","-22.391694","Rio de Janeiro","Itaitaia NP for list - road up to Pico de Agulhas Negras","2005","7","OBS439374209"
"319","Saltator maxillosus Cabanis, 1851","-44.73582","-22.366032","Minas Gerais","Agulhas Negras, Itatiaia NP","2005","8","OBS667549337"
"320","Saltator maxillosus Cabanis, 1851","-44.683113","-22.376958","Rio de Janeiro","Brazil Itatiaia higher part ; pm west of park less rain","2004","7","OBS574446691"
"321","Saltator maxillosus Cabanis, 1851","-48.87579","-25.36344","Paraná","Estrada da Graciosa--Parque Mãe Catira","2004","7","OBS477386978"
"322","Saltator maxillosus Cabanis, 1851","-48.916667","-25.333333",NA,"Serra da Graciosa, Paraná","2004","8","229266@XC"
"323","Saltator maxillosus Cabanis, 1851","-50.574475","-29.440471","Rio Grande do Sul","RGDS, Sao Francisco da Paula","2003","5","OBS136230457"
"324","Saltator maxillosus Cabanis, 1851","-50.194074","-29.187812","Rio Grande do Sul","PN Apartados da Serra","2003","5","OBS136230221"
"325","Saltator maxillosus Cabanis, 1851","-51.154004","-29.179419","Rio Grande do Sul","RGDS, Caixas do Sul roadside","2003","5","OBS136760873"
"326","Saltator maxillosus Cabanis, 1851","-44.732439","-22.362587","Minas Gerais","Itatiaia--Agulhas Negras Rd.","2003","9","OBS164622880"
"327","Saltator maxillosus Cabanis, 1851","-44.755785","-22.372439","Minas Gerais","Pass Itatiaia - Itamonte","2003","9","OBS164755842"
"328","Saltator maxillosus Cabanis, 1851","-44.649475","-22.416804","Rio de Janeiro","Itatiaia NP","2003","10","OBS578356531"
"329","Saltator maxillosus Cabanis, 1851","-42.991991","-22.396824","Rio de Janeiro","Teresopolis, RJ","2003","11","OBS646872493"
"330","Saltator maxillosus Cabanis, 1851","-48.888473","-25.345888","Paraná","Estrada da Graciosa to Floresta do Palmito, Parana","2003","11","OBS646870895"
"331","Saltator maxillosus Cabanis, 1851","-44.619942","-22.435069","Rio de Janeiro","Itatiaia NP: upper Agulhas Negras Rd","2003","11","OBS646871747"
"332","Saltator maxillosus Cabanis, 1851","-44.691696","-22.378651","Rio de Janeiro","Itatiaia NP: Agulhas Negras Rd","2003","11","OBS646871807"
"333","Saltator maxillosus Cabanis, 1851","-48.748648","-25.436292","Paraná","Parana, lowlands near Antonina","2003","12","OBS136756751"
"334","Saltator maxillosus Cabanis, 1851","-43.01","-22.4667",NA,"Serra dos Orgaos National Park. Teresopolis","2002","9","84672@XC"
"335","Saltator maxillosus Cabanis, 1851","-44.1995","-22.837104","Rio de Janeiro","(Lidice) Drove from Hotel Porto di Mare to Hotel do Ype","2002","11","OBS345940362"
"336","Saltator maxillosus Cabanis, 1851","-44.7334","-22.3667",NA,"Itatiaia National Park. Agulhas Negras road","2001","3","316311@XC"
"337","Saltator maxillosus Cabanis, 1851","-50.335107","-29.293827","Rio Grande do Sul","São Francisco de Paula to Aparados da Serra","2000","9","OBS649489599"
"338","Saltator maxillosus Cabanis, 1851","-44.579773","-22.451649","Rio de Janeiro","Brazil - Itachiaia NP","1999","7","OBS47960789"
"339","Saltator maxillosus Cabanis, 1851","-46.495514","-20.250602","Minas Gerais","PN Serra da Canastra","1998","11","OBS389956185"
"340","Saltator maxillosus Cabanis, 1851","-44.652557","-22.735657","São Paulo","PN Bocaina","1998","11","OBS97678703"
"341","Saltator maxillosus Cabanis, 1851","-49.61458","-28.022279","Santa Catarina","Urubici","1997","2","OBS168788795"
"342","Saltator maxillosus Cabanis, 1851","-46.034992","-22.856794","Minas Gerais","Monte Verde","1991","1","OBS107419980"
"343","Saltator maxillosus Cabanis, 1851","-48.982946","-25.496577","Paraná","Mananciais da Serra","1991","8","OBS574370732"
"344","Saltator maxillosus Cabanis, 1851","-48.895833","-25.545278","Paraná","SPVS - Reserva da Mina","1991","8","OBS427409571"
"345","Saltator maxillosus Cabanis, 1851","-44.609921","-22.444232","Rio de Janeiro","Itatiaia trails","1990","8","OBS572557349"
"346","Saltator maxillosus Cabanis, 1851","-44.578357","-22.475914","Rio de Janeiro","Brazil Itatiaia","1988","11","OBS570609442"
"347","Saltator maxillosus Cabanis, 1851","-53.9","-26.47","Misiones","TOBUNAS","1959","8","6aa0885f-2e17-4b5b-98b4-67ac20004ef4"
"348","Saltator maxillosus Cabanis, 1851","-44.57","-22.5","Rio de Janeiro","ITATIAIA; PARQUE NACIONAL, KM 10","1957","3","6d82b7d7-7270-4aca-b885-fba5d50fe65f"
"349","Saltator maxillosus Cabanis, 1851","-80.1128","0",NA,"Chagres R., Panama","1949","1","urn:lsid:biosci.ohio-state.edu:osuc_occurrences:OSUM__Birds__B__12330"
"350","Saltator maxillosus Cabanis, 1851","-52.9022","-30.0281","Rio Grande do Sul","Cachoeira do Sul, Rio Grande do Sul, Brazil","1932","9","urn:lsid:biosci.ohio-state.edu:osuc_occurrences:OSUM__Birds__B__5897"
"351","Saltator maxillosus Cabanis, 1851","-55","-10",NA,NA,"1700","1","MCZ:Orn:76573"
"352","Saltator maxillosus Cabanis, 1851","-53.182","-29.5994","Rio Grande do Sul","Asylo Pella, Rio Grande do Sul, Brazil",NA,NA,"urn:lsid:biosci.ohio-state.edu:osuc_occurrences:OSUM__Birds__B__6040"
"353","Saltator maxillosus Cabanis, 1851","-54.523445","-25.86133","Misiones","Arroyo Urugua-í, km 10",NA,NA,"MACN:MACN-Or:39754"
